stop_lat,wheelchair_boarding,stop_code,stop_lon,stop_timezone,stop_url,parent_station,stop_desc,stop_name,location_type,stop_id,zone_id
38.176255,1,345,13.32601833,Europe/Rome,,,,CASTELFORTE - GIARDINO DELLA CONCORDIA,0,345,1
38.18595986,1,347,13.32358494,Europe/Rome,,,,CASTELFORTE - P.M. 64,0,347,1
38.17783833,1,340,13.32547224,Europe/Rome,,,,CASTELFORTE - BELLINZONA,0,340,1
38.19512906,1,342,13.31551149,Europe/Rome,,,,CASTELFORTE - CHIRONE,0,342,1
38.18095789,1,343,13.32512721,Europe/Rome,,,,CASTELFORTE - DE FONSECA,0,343,1
38.17456833,1,349,13.32646167,Europe/Rome,,,,CASTELFORTE - TRAPANI,0,349,1
38.09881956,1,298,13.31963141,Europe/Rome,,,,CALATAFIMI - RISERVA REALE,0,298,1
38.09448191,1,299,13.30929151,Europe/Rome,,,,CALATAFIMI - ROCCA,0,299,1
38.10710667,1,296,13.34017333,Europe/Rome,,,,CALATAFIMI - RAGUSA MOLETI,0,296,1
38.10266315,1,297,13.3291452,Europe/Rome,,,,CALATAFIMI - REGIONE SICILIANA,0,297,1
38.111615,1,294,13.3515,Europe/Rome,,,,CALATAFIMI - PORTA NUOVA,0,294,1
38.10664801,1,295,13.33917797,Europe/Rome,,,,CALATAFIMI - RAGUSA MOLETI,0,295,1
38.10748378,1,292,13.34125936,Europe/Rome,,,,CALATAFIMI - PINDEMONTE,0,292,1
38.10776,1,293,13.34185167,Europe/Rome,,,,CALATAFIMI - PINDEMONTE,0,293,1
38.10025663,1,290,13.32346511,Europe/Rome,,,,CALATAFIMI - PIETRATAGLIATA,0,290,1
38.10016621,1,291,13.3229949,Europe/Rome,,,,CALATAFIMI - PIETRATAGLIATA,0,291,1
38.10817968,1,270,13.34300855,Europe/Rome,,,,CALATAFIMI - CASERMA TUKORY,0,270,1
38.10848667,1,271,13.34362,Europe/Rome,,,,CALATAFIMI - CASERMA TUKORY,0,271,1
38.09935991,1,272,13.3210047,Europe/Rome,,,,CALATAFIMI - CHINNICI,0,272,1
38.10201813,1,273,13.32783379,Europe/Rome,,,,CALATAFIMI - DE FILIPPO,0,273,1
38.1021091,1,274,13.32779337,Europe/Rome,,,,CALATAFIMI - DE FILIPPO,0,274,1
38.10361083,1,275,13.33177064,Europe/Rome,,,,CALATAFIMI - DRAGO,0,275,1
38.09235667,1,276,13.30573833,Europe/Rome,,,,CALATAFIMI - FONTANA DEL PESCATORE,0,276,1
38.09244667,1,277,13.30578167,Europe/Rome,,,,CALATAFIMI - FONTANA DEL PESCATORE,0,277,1
38.11032025,1,278,13.34819287,Europe/Rome,,,,CALATAFIMI - INDIPENDENZA,0,278,1
38.09949989,1,279,13.32160327,Europe/Rome,,,,CALATAFIMI - LENIN MANCUSO,0,279,1
38.18351119,1,2268,13.31493477,Europe/Rome,,,,MARCIANO,0,2268,1
38.0946984,1,2269,13.34166355,Europe/Rome,,,,LUSSORIO CAU - BASILE,0,2269,1
38.09679833,1,1132,13.42648833,Europe/Rome,,,,MESSINA MARINE - ACQUA DEI CORSARI,0,1132,1
38.13154069,1,2267,13.35837328,Europe/Rome,,,,ALBANESE - DELLA PACE,0,2267,1
38.075835,1,108,13.31023333,Europe/Rome,,,,AQUINO - CARTIERA,0,108,1
38.1527429862,1,,13.3402113192,Europe/Rome,,,,STADIO - FANTE,1,60000,1
38.14356,1,102,13.33190167,Europe/Rome,,,,AQUILEIA - DELLE ALPI,0,102,1
38.14161833,1,103,13.33345667,Europe/Rome,,,,AQUILEIA - LAZIO,0,103,1
38.19936,1,100,13.317285,Europe/Rome,,,,APOLLO - AGLAIA,0,100,1
38.19812167,1,101,13.31454,Europe/Rome,,,,APOLLO - CATALANO,0,101,1
38.07461261,1,106,13.30829367,Europe/Rome,,,,AQUINO - CALO',0,106,1
38.07588833,1,107,13.31022833,Europe/Rome,,,,AQUINO - CARTIERA,0,107,1
38.14174833,1,104,13.33316833,Europe/Rome,,,,AQUILEIA - LAZIO,0,104,1
38.07466012,1,105,13.30828026,Europe/Rome,,,,AQUINO - CALO',0,105,1
38.20863833,1,2046,13.328705,Europe/Rome,,,,TORRE - LI GRECI,0,2046,1
38.21038392,1,2047,13.32802802,Europe/Rome,,,,TORRE - PIANO GALLO ESTERNA,0,2047,1
38.17971604,1,2044,13.29543382,Europe/Rome,,,,TOMMASO NATALE,0,2044,1
38.17964245,1,2045,13.29538326,Europe/Rome,,,,TOMMASO NATALE,0,2045,1
38.18728745,1,2042,13.28939029,Europe/Rome,,,,TOMMASO NATALE - SOCRATE,0,2042,1
38.18660313,1,2043,13.28983847,Europe/Rome,,,,TOMMASO NATALE - SOCRATE,0,2043,1
38.18466855,1,2040,13.29131126,Europe/Rome,,,,TOMMASO NATALE - PASSAGGIO A LIVELLO,0,2040,1
38.1848799833,1,2041,13.2910205967,Europe/Rome,,,,TOMMASO NATALE - PASSAGGIO A LIVELLO,0,2041,1
38.21045333,1,2048,13.327935,Europe/Rome,,,,TORRE - PIANO GALLO INTERNA,0,2048,1
38.20634,1,2049,13.325295,Europe/Rome,,,,TORRE MONDELLO - TETI,0,2049,1
38.08523322,1,1210,13.35324602,Europe/Rome,,,,MONETA - ERMELLINO,0,1210,1
38.08233333,1,99,13.35709167,Europe/Rome,,,,ANTILOPE - GUIDO ROSSA,0,99,1
38.08405111,1,98,13.35620732,Europe/Rome,,,,ANTILOPE - ERMELLINO,0,98,1
38.1439172233,1,91,13.36267897,Europe/Rome,,,,AMMIRAGLIO RIZZO - JUNG,0,91,1
38.14350667,1,90,13.35926167,Europe/Rome,,,,AMMIRAGLIO RIZZO - GENERALE CASCINO,0,90,1
38.144341795,1,93,13.367691525,Europe/Rome,,,,AMMIRAGLIO RIZZO - PIAZZA ACQUASANTA,0,93,1
38.144015,1,92,13.36322167,Europe/Rome,,,,AMMIRAGLIO RIZZO - JUNG,0,92,1
38.19519833,1,95,13.31479833,Europe/Rome,,,,ANTIGONE - CASTELFORTE,0,95,1
38.14434667,1,94,13.367305,Europe/Rome,,,,AMMIRAGLIO RIZZO - PIAZZA ACQUASANTA,0,94,1
38.19434384,1,97,13.31336707,Europe/Rome,,,,ANTIGONE - PORTA DI MARE,0,97,1
38.193225,1,96,13.31168833,Europe/Rome,,,,ANTIGONE - NICOTI,0,96,1
38.15245333,1,1991,13.33085833,Europe/Rome,,,,STRASBURGO - BELGIO,0,1991,1
38.15452,1,1990,13.32865833,Europe/Rome,,,,STRASBURGO - ALDISIO,0,1990,1
38.14578156,1,1621,13.36795136,Europe/Rome,,,,RAMPOLLA - MONTINI,0,1621,1
38.15232667,1,1992,13.33076167,Europe/Rome,,,,STRASBURGO - BELGIO,0,1992,1
38.19975554,1,1627,13.3283465175,Europe/Rome,,,,REGINA ELENA - IRIS,0,1627,1
38.2009434287,1,1626,13.3272252312,Europe/Rome,,,,REGINA ELENA - DELLE ROSE,0,1626,1
38.1984982575,1,1625,13.3297840925,Europe/Rome,,,,REGINA ELENA - COMMISSARIATO P.S.,0,1625,1
38.2036042622,1,1624,13.3255298144,Europe/Rome,,,,REGINA ELENA - CIRCE,0,1624,1
38.15630833,1,1999,13.32714833,Europe/Rome,,,,STRASBURGO - FRANCIA,0,1999,1
38.14959,1,1998,13.33264667,Europe/Rome,,,,STRASBURGO - DE GASPERI,0,1998,1
38.2028420656,1,1629,13.3261989478,Europe/Rome,,,,REGINA ELENA - STABILIMENTO,0,1629,1
38.15061826,1,559,13.33889902,Europe/Rome,,,,CROCE ROSSA - DE GASPERI,0,559,1
38.17640667,1,558,13.366015,Europe/Rome,,,,CRISTOFORO COLOMBO 3,0,558,1
38.17147333,1,555,13.36639167,Europe/Rome,,,,CRISTOFORO COLOMBO 5,0,555,1
38.17296035,1,554,13.36607248,Europe/Rome,,,,CRISTOFORO COLOMBO 4,0,554,1
38.18048,1,557,13.36560333,Europe/Rome,,,,CRISTOFORO COLOMBO 2,0,557,1
38.18454833,1,551,13.36306333,Europe/Rome,,,,CRISTOFORO COLOMBO 1,0,551,1
38.17145333,1,550,13.36630333,Europe/Rome,,,,CRISTOFORO COLOMBO 5,0,550,1
38.17657021,1,553,13.36606443,Europe/Rome,,,,CRISTOFORO COLOMBO 3,0,553,1
38.18047085,1,552,13.365670145,Europe/Rome,,,,CRISTOFORO COLOMBO 2,0,552,1
38.13719736,1,1191,13.32015366,Europe/Rome,,,,MICHELANGELO 7,0,1191,1
38.13609462,1,1190,13.31641557,Europe/Rome,,,,MICHELANGELO 6,0,1190,1
38.116215,1,1192,13.34420667,Europe/Rome,,,,MICHELE PIAZZA,0,1192,1
38.12496833,1,1759,13.358765,Europe/Rome,,,,ROMA - BELMONTE,0,1759,1
38.11865806,1,1757,13.36254001,Europe/Rome,,,,ROMA - BANDIERA,0,1757,1
38.10362567,1,1756,13.36516052,Europe/Rome,,,,ROCCO JEMMA,0,1756,1
38.09909167,1,1755,13.350945,Europe/Rome,,,,ROCCELLA - VITALI,0,1755,1
38.09833,1,1754,13.35062167,Europe/Rome,,,,ROCCELLA - VITALI,0,1754,1
38.09763443,1,1752,13.3500959,Europe/Rome,,,,ROCCELLA - S. R. ARCANGELO,0,1752,1
38.09711833,1,1751,13.34936167,Europe/Rome,,,,ROCCELLA - S. R. ARCANGELO,0,1751,1
38.0960967,1,1750,13.34819555,Europe/Rome,,,,ROCCELLA - RAITI,0,1750,1
38.13274454,1,1177,13.30817167,Europe/Rome,,,,MICHELANGELO - CAVA,0,1177,1
38.13448698,1,1176,13.31272891,Europe/Rome,,,,MICHELANGELO - CASALINI,0,1176,1
38.13558015,1,1175,13.31480236,Europe/Rome,,,,MICHELANGELO - BRUNELLESCHI,0,1175,1
38.13787553,1,1174,13.32303724,Europe/Rome,,,,MICHELANGELO - BERNINI,0,1174,1
38.13669709,1,1173,13.31799667,Europe/Rome,,,,MICHELANGELO - BADIA,0,1173,1
38.13715658,1,1172,13.31918136,Europe/Rome,,,,MICHELANGELO - BADIA,0,1172,1
38.0973,1,1171,13.41867667,Europe/Rome,,,,MESSINA MARINE 1,0,1171,1
38.09803833,1,1170,13.41099667,Europe/Rome,,,,MESSINA MARINE 2,0,1170,1
38.13288816,1,1179,13.30903043,Europe/Rome,,,,MICHELANGELO - FRONTINI,0,1179,1
38.13851852,1,1178,13.32578688,Europe/Rome,,,,MICHELANGELO - FELICE,0,1178,1
38.08087915,1,1283,13.31893936,Europe/Rome,,,,OLIO DI LINO 5,0,1283,1
38.08130246,1,1282,13.32069889,Europe/Rome,,,,OLIO DI LINO 4,0,1282,1
38.10435667,1,1289,13.36881667,Europe/Rome,,,,ORETO - BERGAMO,0,1289,1
38.10487,1,1288,13.368395,Europe/Rome,,,,ORETO - BERGAMO,0,1288,1
38.197835,1,1579,13.30859,Europe/Rome,,,,POLIBIO - EOLO,0,1579,1
38.19731,1,1578,13.307,Europe/Rome,,,,POLIBIO - AMARILLI,0,1578,1
38.05206215,1,689,13.30962926,Europe/Rome,,,,DEL FANTE - DEL BERSAGLIERE,0,689,1
38.05541333,1,688,13.31223,Europe/Rome,,,,DEL FANTE - DEI CORAZZIERI,0,688,1
38.19941234,1,1573,13.26970473,Europe/Rome,,,,PLAUTO - BAIA DEL CORALLO,0,1573,1
38.11004333,1,1572,13.31827333,Europe/Rome,,,,PITRE' 6,0,1572,1
38.110365,1,1571,13.32227667,Europe/Rome,,,,PITRE' 5,0,1571,1
38.11035333,1,1570,13.32294,Europe/Rome,,,,PITRE' 3,0,1570,1
38.19782833,1,1577,13.27234167,Europe/Rome,,,,PLAUTO - LEONE,0,1577,1
38.19840667,1,1576,13.27098667,Europe/Rome,,,,PLAUTO - FLORIO,0,1576,1
38.19876,1,1575,13.27060667,Europe/Rome,,,,PLAUTO - FLORIO,0,1575,1
38.19904241,1,1574,13.27013388,Europe/Rome,,,,PLAUTO - BAIA DEL CORALLO,0,1574,1
38.1131117,1,1348,13.30643253,Europe/Rome,,,,PANDOLFINI,0,1348,1
38.17547113,1,1223,13.31196559,Europe/Rome,,,,MORMINO,0,1223,1
38.12526566,1,1222,13.33083862,Europe/Rome,,,,MONTUORO,0,1222,1
38.13803965,1,1221,13.35825652,Europe/Rome,,,,MONTEPELLEGRINO - MONTALBO,0,1221,1
38.13745448,1,1220,13.35858643,Europe/Rome,,,,MONTEPELLEGRINO - MONTALBO,0,1220,1
38.14566167,1,1371,13.36998833,Europe/Rome,,,,PAPA SERGIO - VILLA IGIEA,0,1371,1
38.15145167,1,1370,13.370695,Europe/Rome,,,,PAPA SERGIO - TONNARA,0,1370,1
38.11679333,1,1373,13.35197167,Europe/Rome,,,,PAPIRETO - PIAZZA DEL NOVIZIATO,0,1373,1
38.13225589,1,404,13.29363138,Europe/Rome,,,,CENTURIPE - AUGUSTA,0,404,1
38.13227443,1,402,13.29573935,Europe/Rome,,,,CENTURIPE - ALIA,0,402,1
38.09775167,1,1377,13.345455,,,30000,,PARCHEGGIO BASILE CORSIA ESTERNA,0,1377,1
38.13115351,1,400,13.30093101,Europe/Rome,,,,CENTURIPE - ACIREALE,0,400,1
38.11638167,1,1379,13.33168167,,,40000,,PARCHEGGIO DEGLI EMIRI,0,1379,1
38.09788333,1,1378,13.34533667,,,30000,,PARCHEGGIO BASILE CORSIA INTERNA,0,1378,1
38.08052234,1,452,13.39913204,Europe/Rome,,,,CIACULLI 5,0,452,1
38.08054667,1,453,13.39916833,Europe/Rome,,,,CIACULLI 5,0,453,1
38.07605894,1,454,13.40666369,Europe/Rome,,,,CIACULLI 6,0,454,1
38.12561923,1,372,13.30892667,Europe/Rome,,,,CASTELLANA - TEMBIEN,0,372,1
38.12574478,1,376,13.29671726,Europe/Rome,,,,CASTELLANA - VILLA DELLE GINESTRE,0,376,1
38.12148497,1,390,13.35908431,Europe/Rome,,,,CAVOUR,0,390,1
38.133445,1,398,13.307915,Europe/Rome,,,,CENTORBE,0,398,1
38.14468521,1,244,13.34064427,Europe/Rome,,,,BRIGATA VERONA - SICILIA,0,244,1
38.14453333,1,243,13.34050203,Europe/Rome,,,,BRIGATA VERONA - SICILIA,0,243,1
38.14325253,1,242,13.33853745,Europe/Rome,,,,BRIGATA VERONA - LIGURIA,0,242,1
38.13702487,1,249,13.31355805,Europe/Rome,,,,BRUNELLESCHI - BESIO,0,249,1
38.13732333,1,248,13.31366947,Europe/Rome,,,,BRUNELLESCHI - BESIO,0,248,1
38.08464037,1,2275,13.36584925,Europe/Rome,,,,LEVRIERE - BASSOTTO,0,2275,1
38.08173777,1,2274,13.36350683,Europe/Rome,,,,LEVRIERE - SEGUGIO,0,2274,1
38.09706333,1,2277,13.41323833,Europe/Rome,,,,LAUDICINA - BERTETT,0,2277,1
38.14752982,1,2276,13.33665173,Europe/Rome,,,,AUSONIA - VALDEMONE,0,2276,1
38.10743958,1,2271,13.35428791,Europe/Rome,,,,BASILE - RE RUGGERO,0,2271,1
38.09314477,1,2270,13.34394343,Europe/Rome,,,,LUSSORIO CAU - ZACCO,0,2270,1
38.08074013,1,2273,13.36102363,Europe/Rome,,,,LEVRIERE - ANTILOPE,0,2273,1
38.08218335,1,2272,13.35705816,Europe/Rome,,,,ANTILOPE - ROSSA,0,2272,1
38.09755667,1,178,13.34550833,Europe/Rome,,,,BASILE - PARCHEGGIO BASILE,0,178,1
38.09649776,1,177,13.3437109,Europe/Rome,,,,BASILE - MEDAGLIE D'ORO,0,177,1
38.10283946,1,176,13.34879905,Europe/Rome,,,,BASILE - FACOLTA' DI LETTERE,0,176,1
38.10545133,1,175,13.35137799,Europe/Rome,,,,BASILE - FACOLTA' DI INGEGNERIA,0,175,1
38.10368,1,174,13.34967333,Europe/Rome,,,,BASILE - FACOLTA' DI INGEGNERIA,0,174,1
38.10424667,1,173,13.35003,Europe/Rome,,,,BASILE - FACOLTA' DI ECONOMIA E COMMERCIO,0,173,1
38.09564498,1,172,13.34209621,Europe/Rome,,,,BASILE - BRASA,0,172,1
38.19772833,1,2051,13.27302,Europe/Rome,,,,TORRETTA,0,2051,1
38.18839694,1,1502,13.28802154,Europe/Rome,,,,PIAZZA TOMMASO NATALE - PIAZZA MANDORLE,0,1502,1
38.19842902,1,2053,13.27615678,Europe/Rome,,,,TORRETTA - COSMA E DAMIANO,0,2053,1
38.19798742,1,2052,13.27473924,Europe/Rome,,,,TORRETTA - CATULLO,0,2052,1
38.14953167,1,2055,13.315465,Europe/Rome,,,,TRABUCCO - GIUFFRE',0,2055,1
38.14858833,1,2054,13.31538167,Europe/Rome,,,,TRABUCCO - CERVELLO,0,2054,1
38.14725833,1,2057,13.31553167,Europe/Rome,,,,TRABUCCO - PRESTIGIACOMO,0,2057,1
38.15385333,1,2056,13.31566333,Europe/Rome,,,,TRABUCCO - OSPEDALE CERVELLO,0,2056,1
38.151395,1,2059,13.31549,Europe/Rome,,,,TRABUCCO - ROENTGEN,0,2059,1
38.18852309,1,1501,13.28796818,Europe/Rome,,,,PIAZZA TOMMASO NATALE - PIAZZA MANDORLE,0,1501,1
38.05950885,1,1506,13.31783026,Europe/Rome,,,,PIAZZA VILLACIAMBRA,0,1506,1
38.090801,1,651,13.4145844,Europe/Rome,,,,DEI MILLE - SCUOLA NATOLI,0,651,1
38.10997836,1,1972,13.36617172,,,20000,,STAZIONE CENTRALE - ARDIZZONE 2,0,1972,1
38.10996333,1,1971,13.36615333,,,20000,,STAZIONE CENTRALE - ARDIZZONE 1,0,1971,1
38.15336667,1,1970,13.34013833,,,60000,,STADIO,0,1970,1
38.1220902,1,1968,13.35540399,Europe/Rome,,,,STABILE - PIAZZALE UNGHERIA,0,1968,1
38.14752813,1,1619,13.3660537,Europe/Rome,,,,RAMPOLLA - BONANNO,0,1619,1
38.09643833,1,1616,13.34665833,Europe/Rome,,,,RAITI,0,1616,1
38.09687167,1,1617,13.34612333,Europe/Rome,,,,RAITI,0,1617,1
38.10047178,1,1966,13.33287207,Europe/Rome,,,,SS. MEDIATRICE - REGIONE SICILIANA,0,1966,1
38.14679333,1,1615,13.35702167,Europe/Rome,,,,RABIN - SCALA VECCHIA,0,1615,1
38.20141833,1,1612,13.26768167,Europe/Rome,,,,R.T. MARCONI,0,1612,1
38.14375862,1,1613,13.35747868,Europe/Rome,,,,RABIN - AMMIRAGLIO RIZZO,0,1613,1
38.20857,1,1610,13.28244333,Europe/Rome,,,,PUNTA BARCARELLO,0,1610,1
38.20848667,1,1611,13.28235,Europe/Rome,,,,PUNTA BARCARELLO,0,1611,1
38.120872278,1,1768,13.361525354,Europe/Rome,,,,ROMA - POSTE,0,1768,1
38.119205,1,1769,13.36230833,Europe/Rome,,,,ROMA - S. DOMENICO,0,1769,1
38.11196214,1,1762,13.36591959,Europe/Rome,,,,ROMA - FS,0,1762,1
38.11574173,1,1763,13.36398304,Europe/Rome,,,,ROMA - LATTARINI,0,1763,1
38.1122955767,1,1761,13.3657121667,Europe/Rome,,,,ROMA - FIUME,0,1761,1
38.11383,1,1766,13.36500167,Europe/Rome,,,,ROMA - PALAZZO GANCI,0,1766,1
38.12021325,1,1767,13.36178362,Europe/Rome,,,,ROMA - POSTE,0,1767,1
38.1155261,1,1764,13.36418132,Europe/Rome,,,,ROMA - LATTARINI,0,1764,1
38.11397752,1,1765,13.36482257,Europe/Rome,,,,ROMA - PALAZZO GANCI,0,1765,1
38.10667,1,1142,13.384345,Europe/Rome,,,,MESSINA MARINE - CAPPELLO,0,1142,1
38.10678833,1,1143,13.38389333,Europe/Rome,,,,MESSINA MARINE - CAPPELLO,0,1143,1
38.1061,1,1140,13.38667833,Europe/Rome,,,,MESSINA MARINE - BUCCHERI LA FERLA,0,1140,1
38.10648667,1,1141,13.38568667,Europe/Rome,,,,MESSINA MARINE - BUCCHERI LA FERLA,0,1141,1
38.10331167,1,1147,13.39327,Europe/Rome,,,,MESSINA MARINE - CLOBER,0,1147,1
38.100045,1,1144,13.402815,Europe/Rome,,,,MESSINA MARINE - CARACAUSI,0,1144,1
38.10042833,1,1145,13.40179333,Europe/Rome,,,,MESSINA MARINE - CARACAUSI,0,1145,1
38.105435,1,1148,13.38859,Europe/Rome,,,,MESSINA MARINE - D' AOSTA,0,1148,1
38.10586167,1,1149,13.387675,Europe/Rome,,,,MESSINA MARINE - D' AOSTA,0,1149,1
38.16192099,1,692,13.33371075,Europe/Rome,,,,DEL FANTE - PIAZZA NISCEMI,0,692,1
38.10944652,1,1547,13.3121708,Europe/Rome,,,,PITRE' - AEROCLUB,0,1547,1
38.10648656,1,1544,13.34499031,Europe/Rome,,,,PISANI - INGRIA,0,1544,1
38.05077373,1,691,13.308854975,Europe/Rome,,,,DEL FANTE - PIANO MAGLIO,0,691,1
38.10908022,1,1542,13.34972151,Europe/Rome,,,,PISANI - INDIPENDENZA,0,1542,1
38.16045795,1,697,13.33478656,Europe/Rome,,,,DEL FANTE - TEATRO DELLA VERDURA,0,697,1
38.15545253,1,694,13.33863884,Europe/Rome,,,,DEL FANTE - PIAZZETTA SALERNO,0,694,1
38.15423872,1,695,13.33952531,Europe/Rome,,,,DEL FANTE - STADIO DELLE PALME,0,695,1
38.16129654,1,698,13.33428688,Europe/Rome,,,,DEL FANTE - VILLA ROSATO,0,698,1
38.10551333,1,699,13.36262833,Europe/Rome,,,,DEL VESPRO - DELLE CLINICHE,0,699,1
38.10946167,1,1548,13.31131,Europe/Rome,,,,PITRE' - AEROCLUB,0,1548,1
38.11046167,1,1549,13.336315,Europe/Rome,,,,PITRE' - ALTARELLO,0,1549,1
38.193020835,1,542,13.34129583,Europe/Rome,,,,CRISTOFORO COLOMBO - PIETRO ROMBULO,0,542,1
38.19017305,1,543,13.34547579,Europe/Rome,,,,CRISTOFORO COLOMBO - ROOSEVELT,0,543,1
38.188933335,1,540,13.34838667,Europe/Rome,,,,CRISTOFORO COLOMBO - PIETRO DE GUEVARA,0,540,1
38.19314,1,541,13.34096,Europe/Rome,,,,CRISTOFORO COLOMBO - PIETRO ROMBULO,0,541,1
38.16699333,1,547,13.366205,Europe/Rome,,,,CRISTOFORO COLOMBO - VERGINE MARIA,0,547,1
38.1899525,1,544,13.345955835,Europe/Rome,,,,CRISTOFORO COLOMBO - ROOSEVELT,0,544,1
38.16652668,1,545,13.36598933,Europe/Rome,,,,CRISTOFORO COLOMBO - VERGINE MARIA,0,545,1
38.18503333,1,548,13.36246333,Europe/Rome,,,,CRISTOFORO COLOMBO 1,0,548,1
38.17298333,1,549,13.36603833,Europe/Rome,,,,CRISTOFORO COLOMBO 4,0,549,1
38.08565681,1,764,13.35858777,Europe/Rome,,,,ERMELLINO - LONTRA,0,764,1
38.08570256,1,765,13.35885425,Europe/Rome,,,,ERMELLINO - LONTRA,0,765,1
38.08578031,1,414,13.36922005,Europe/Rome,,,,CHIAVELLI - COLNAGO,0,414,1
38.09159522,1,410,13.3687447,Europe/Rome,,,,CHIAVELLI - AL CASALE,0,410,1
38.08198017,1,411,13.36760938,Europe/Rome,,,,CHIAVELLI - BAGNERA,0,411,1
38.09654716,1,412,13.36884624,Europe/Rome,,,,CHIAVELLI - CADUTI DELL'8 LUGLIO 1960,0,412,1
38.07998185,1,413,13.36815119,Europe/Rome,,,,CHIAVELLI - CARDINALE,0,413,1
38.12580667,1,1384,13.33747,Europe/Rome,,,,PARISIO - FALCANDO,0,1384,1
38.12505236,1,1386,13.33427975,Europe/Rome,,,,PARISIO - LANCIA DI BROLO,0,1386,1
38.12511167,1,1387,13.34364,Europe/Rome,,,,PARLATORE - ADRIA,0,1387,1
38.20128667,1,1380,13.3232,Europe/Rome,,,,PARCHEGGIO GALATEA,0,1380,1
38.20104,1,1381,13.32267,Europe/Rome,,,,PARCHEGGIO GALATEA,0,1381,1
38.20719727,1,1382,13.32191393,Europe/Rome,,,,PARCHEGGIO MONGIBELLO ALTO,0,1382,1
38.2070687,1,1383,13.32284599,Europe/Rome,,,,PARCHEGGIO MONGIBELLO BASSO,0,1383,1
38.12556754,1,368,13.29897165,Europe/Rome,,,,CASTELLANA - S. ISIDORO,0,368,1
38.12571629,1,366,13.31136078,Europe/Rome,,,,CASTELLANA - ROCCAZZO,0,366,1
38.12563942,1,367,13.30097628,Europe/Rome,,,,CASTELLANA - ROGAZIONISTI,0,367,1
38.12583722,1,364,13.29229893,Europe/Rome,,,,CASTELLANA - PANTALICA,0,364,1
38.12579753,1,362,13.2983923,Europe/Rome,,,,CASTELLANA - MODICA,0,362,1
38.12546309,1,363,13.29345435,Europe/Rome,,,,CASTELLANA - MONTEVAGO,0,363,1
38.12584922,1,360,13.30003088,Europe/Rome,,,,CASTELLANA - LERCARA,0,360,1
38.1813752,1,380,13.31575828,Europe/Rome,,,,CASTELLOTTI - AGESIA DI SIRACUSA,0,380,1
38.18297286,1,381,13.31461353,Europe/Rome,,,,CASTELLOTTI - MARCIANO,0,381,1
38.10413822,1,385,13.34167615,Europe/Rome,,,,CATALANO - LOI,0,385,1
38.19771234,1,386,13.2746467,Europe/Rome,,,,CATULLO,0,386,1
38.19668052,1,387,13.31538007,Europe/Rome,,,,CAVARRETTA - CASTELFORTE,0,387,1
38.19823,1,388,13.318295,Europe/Rome,,,,CAVARRETTA - SALINE,0,388,1
38.19741934,1,389,13.31676274,Europe/Rome,,,,CAVARRETTA - TUBEROSA,0,389,1
38.12350394,1,1743,13.31009477,Europe/Rome,,,,ROCCAZZO - MASSAUA,0,1743,1
38.12115859,1,1253,13.33528742,Europe/Rome,,,,NOCE - LITTARA,0,1253,1
38.11888385,1,2190,13.36924553,Europe/Rome,,,,VITTORIO EMANUELE - S. MARIA DELLA CATENA,0,2190,1
38.07904667,1,2191,13.439045,Europe/Rome,,,,VITTORIO EMANUELE - UMBERTO I,0,2191,1
38.11292024,1,2192,13.35469991,Europe/Rome,,,,VITTORIO EMANUELE - VILLA BONANNO,0,2192,1
38.18889171,1,259,13.29434586,Europe/Rome,,,,CADUTI SUL LAVORO 1,0,259,1
38.11685805,1,2194,13.3642593,Europe/Rome,,,,VITTORIO EMANUELE - VUCCIRIA,0,2194,1
38.076955,1,2195,13.44472167,Europe/Rome,,,,VITTORIO EMANUELE - XXIV MAGGIO,0,2195,1
38.119525,1,2196,13.35391333,Europe/Rome,,,,VOLTURNO - CAPO,0,2196,1
38.13990562,1,252,13.31418976,Europe/Rome,,,,BRUNELLESCHI - VANVITELLI,0,252,1
38.10258815,1,253,13.37397758,Europe/Rome,,,,BUONRIPOSO,0,253,1
38.138805,1,250,13.313955,Europe/Rome,,,,BRUNELLESCHI - BUONFORNELLO,0,250,1
38.13884943,1,251,13.31389906,Europe/Rome,,,,BRUNELLESCHI - BUONFORNELLO,0,251,1
38.10379009,1,257,13.3743357,Europe/Rome,,,,BUONRIPOSO - PIAZZA SCAFFA,0,257,1
38.10089419,1,255,13.37355224,Europe/Rome,,,,BUONRIPOSO - ORETO,0,255,1
38.17820167,1,2204,13.31241667,Europe/Rome,,,,ZAPPA,0,2204,1
38.1385493,1,2206,13.3354791,Europe/Rome,,,,ZAPPALA',0,2206,1
38.13911667,1,2207,13.3353,Europe/Rome,,,,ZAPPALA',0,2207,1
38.16637,1,2208,13.30500167,Europe/Rome,,,,ZONA INDUSTRIALE - CITTA' GIARDINO,0,2208,1
38.10032458,1,169,13.34709853,Europe/Rome,,,,BASILE - ARTALE,0,169,1
38.204784,1,164,13.28096464,Europe/Rome,,,,BARCARELLO 4,0,164,1
38.12096669,1,165,13.36602852,Europe/Rome,,,,BARILLAI - S. SEBASTIANO,0,165,1
38.0952904875,1,167,13.34194104,Europe/Rome,,,,BASILE - ANELLI,0,167,1
38.20467,1,161,13.280885,Europe/Rome,,,,BARCARELLO 1,0,161,1
38.20638667,1,162,13.282455,Europe/Rome,,,,BARCARELLO 2,0,162,1
38.20656498,1,163,13.28241035,Europe/Rome,,,,BARCARELLO 3,0,163,1
38.130056775,1,,13.352247595,Europe/Rome,,,,CROCI - MORDINI,1,70000,1
38.16360037,1,1814,13.32210008,Europe/Rome,,,,S. LORENZO - MARINAI D'ITALIA,0,1814,1
38.16735333,1,1815,13.31487715,Europe/Rome,,,,S. LORENZO - SAVAGNONE,0,1815,1
38.16718313,1,1816,13.31504302,Europe/Rome,,,,S. LORENZO - SAVAGNONE,0,1816,1
38.16059225,1,1817,13.32856799,Europe/Rome,,,,S. LORENZO - SERRETTA,0,1817,1
38.16084113,1,1810,13.32725555,Europe/Rome,,,,S. LORENZO - LARGO S. LORENZO,0,1810,1
38.16071333,1,1811,13.32761167,Europe/Rome,,,,S. LORENZO - LARGO S. LORENZO,0,1811,1
38.1693714,1,1812,13.31014842,Europe/Rome,,,,S. LORENZO - LO VALVO,0,1812,1
38.16954823,1,1813,13.30654664,Europe/Rome,,,,S. LORENZO - LO VALVO,0,1813,1
38.164515,1,1818,13.31878667,Europe/Rome,,,,S. LORENZO - STAZIONE FS,0,1818,1
38.16932711,1,1819,13.30830023,Europe/Rome,,,,S. LORENZO - VALLOTTA,0,1819,1
38.1255963167,1,,13.3571653633,Europe/Rome,,,,STURZO - POLITEAMA,1,80000,1
38.126710018,1,1609,13.357305124,Europe/Rome,,,,PUGLISI BERTOLINO,0,1609,1
38.155885,1,1608,13.34453833,Europe/Rome,,,,PROTEZIONE CIVILE,0,1608,1
38.109873165,1,1979,13.366441835,,,20000,,STAZIONE CENTRALE - GIULIO CESARE,0,1979,1
38.10938169,1,1976,13.36659633,,,20000,,STAZIONE CENTRALE - CUPANI 1,0,1976,1
38.19953941,1,1603,13.3271635814,Europe/Rome,,,,PRINCIPE DI SCALEA - AMAP,0,1603,1
38.13395167,1,1602,13.33656167,Europe/Rome,,,,PRINCIPE DI PALAGONIA - CARCERE MINORILE,0,1602,1
38.20469183,1,1605,13.3241049678,Europe/Rome,,,,PRINCIPE DI SCALEA - MONDELLO,0,1605,1
38.2013025329,1,1604,13.3255232743,Europe/Rome,,,,PRINCIPE DI SCALEA - GALATEA,0,1604,1
38.1969550029,1,1607,13.3310235714,Europe/Rome,,,,PRINCIPE DI SCALEA - VALDESI,0,1607,1
38.1983704529,1,1606,13.32848975,Europe/Rome,,,,PRINCIPE DI SCALEA - OLEANDRI,0,1606,1
38.0783498,1,808,13.36941317,Europe/Rome,,,,FALSOMIELE - PECORARO,0,808,1
38.11738423,1,803,13.29119805,Europe/Rome,,,,FALCONARA 2,0,803,1
38.11749012,1,802,13.28986964,Europe/Rome,,,,FALCONARA 3,0,802,1
38.11666277,1,801,13.28881935,Europe/Rome,,,,FALCONARA 4,0,801,1
38.0789927,1,807,13.37170511,Europe/Rome,,,,FALSOMIELE - LUCCHICELLI,0,807,1
38.08004836,1,805,13.37283433,Europe/Rome,,,,FALSOMIELE - BARRESI,0,805,1
38.162155,1,1775,13.370575,Europe/Rome,,,,ROTOLI 2,0,1775,1
38.15880667,1,1774,13.37121667,Europe/Rome,,,,ROTOLI 1,0,1774,1
38.16338872,1,1777,13.36987048,Europe/Rome,,,,ROTOLI 3,0,1777,1
38.16389,1,1776,13.36974333,Europe/Rome,,,,ROTOLI 3,0,1776,1
38.13032013,1,1084,13.33880246,Europe/Rome,,,,MALASPINA - PIAZZA ZIINO,0,1084,1
38.12357833,1,1770,13.35974667,Europe/Rome,,,,ROMA - STABILE,0,1770,1
38.11702833,1,1772,13.363385,Europe/Rome,,,,ROMA - VUCCIRIA,0,1772,1
38.15909833,1,1779,13.37134833,Europe/Rome,,,,ROTOLI 1,0,1779,1
38.16161167,1,1778,13.37072167,Europe/Rome,,,,ROTOLI 2,0,1778,1
38.14931596,1,608,13.33359146,Europe/Rome,,,,DE GASPERI - STRASBURGO,0,608,1
38.10091,1,1159,13.40008833,Europe/Rome,,,,MESSINA MARINE - RAVENNA,0,1159,1
38.09954833,1,1158,13.40443333,Europe/Rome,,,,MESSINA MARINE - PIAZZETTA SPERONE,0,1158,1
38.09690667,1,1155,13.4214,Europe/Rome,,,,MESSINA MARINE - LI GOTTI,0,1155,1
38.09791833,1,1154,13.412975,Europe/Rome,,,,MESSINA MARINE - LAUDICINA,0,1154,1
38.101255,1,1157,13.399435,Europe/Rome,,,,MESSINA MARINE - PALUMBO,0,1157,1
38.1016,1,1156,13.39823667,Europe/Rome,,,,MESSINA MARINE - PALUMBO,0,1156,1
38.109285855,1,1151,13.3798404283,Europe/Rome,,,,MESSINA MARINE - FIUME ORETO,0,1151,1
38.1031989467,1,1150,13.39377572,Europe/Rome,,,,MESSINA MARINE - DIAZ,0,1150,1
38.09774667,1,1153,13.41451,Europe/Rome,,,,MESSINA MARINE - BERTETT,0,1153,1
38.09786,1,1152,13.41288167,Europe/Rome,,,,MESSINA MARINE - LAUDICINA,0,1152,1
38.0656616,1,59,13.32532704,Europe/Rome,,,,ALTOFONTE - CALVARUSO,0,59,1
38.06583167,1,58,13.325275,Europe/Rome,,,,ALTOFONTE - CALVARUSO,0,58,1
38.11048589,1,1551,13.33373102,Europe/Rome,,,,PITRE' - CAMARDA,0,1551,1
38.11040044,1,1550,13.33632141,Europe/Rome,,,,PITRE' - CAMARDA,0,1550,1
38.11043167,1,1552,13.334105,Europe/Rome,,,,PITRE' - GENERALE SALEMI,0,1552,1
38.11053333,1,1555,13.3244,Europe/Rome,,,,PITRE' - MADONNA DEL SOCCORSO,0,1555,1
38.11055,1,1554,13.325425,Europe/Rome,,,,PITRE' - MADONNA DEL SOCCORSO,0,1554,1
38.110515,1,1557,13.33142667,Europe/Rome,,,,PITRE' - PALCHETTO,0,1557,1
38.11048167,1,1556,13.33153667,Europe/Rome,,,,PITRE' - PALCHETTO,0,1556,1
38.11057167,1,1559,13.33946333,Europe/Rome,,,,PITRE' - PINDEMONTE,0,1559,1
38.07652029,1,54,13.35521221,Europe/Rome,,,,ALOI 1,0,54,1
38.0841315,1,56,13.35293368,Europe/Rome,,,,ALOI 3,0,56,1
38.08118845,1,51,13.35385501,Europe/Rome,,,,ALOI - GRAFFEO,0,51,1
38.07499511,1,50,13.35562812,Europe/Rome,,,,ALOI - FALSOMIELE,0,50,1
38.08274866,1,53,13.35336417,Europe/Rome,,,,ALOI - VITALE,0,53,1
38.18262833,1,537,13.36467,Europe/Rome,,,,CRISTOFORO COLOMBO - MARCANTONIO COLONNA,0,537,1
38.18979333,1,536,13.35899667,Europe/Rome,,,,CRISTOFORO COLOMBO - MAGELLANO,0,536,1
38.18975143,1,535,13.35892171,Europe/Rome,,,,CRISTOFORO COLOMBO - MAGELLANO,0,535,1
38.18868,1,534,13.35099333,Europe/Rome,,,,CRISTOFORO COLOMBO - LORENZO MARQUES,0,534,1
38.18861,1,533,13.35134667,Europe/Rome,,,,CRISTOFORO COLOMBO - LORENZO MARQUES,0,533,1
38.18669668,1,532,13.36086094,Europe/Rome,,,,CRISTOFORO COLOMBO - DE VEGA,0,532,1
38.186645,1,531,13.36081667,Europe/Rome,,,,CRISTOFORO COLOMBO - DE VEGA,0,531,1
38.10923167,1,1558,13.30977833,Europe/Rome,,,,PITRE' - PIAZZA MICCA,0,1558,1
38.18883333,1,539,13.34874333,Europe/Rome,,,,CRISTOFORO COLOMBO - PIETRO DE GUEVARA,0,539,1
38.18266667,1,538,13.364725,Europe/Rome,,,,CRISTOFORO COLOMBO - MARCANTONIO COLONNA,0,538,1
38.08404599,1,429,13.39510337,Europe/Rome,,,,CIACULLI - CARRUBELLA,0,429,1
38.07874884,1,428,13.4013623,Europe/Rome,,,,CIACULLI - BOZZO,0,428,1
38.19600333,1,1399,13.30816667,Europe/Rome,,,,PARTANNA MONDELLO - IANDOLINO,0,1399,1
38.19612927,1,1398,13.3082618,Europe/Rome,,,,PARTANNA MONDELLO - DIONISO,0,1398,1
38.08336197,1,421,13.36816862,Europe/Rome,,,,CHIAVELLI - SEMILIA,0,421,1
38.08528947,1,420,13.36854413,Europe/Rome,,,,CHIAVELLI - SCIACCA,0,420,1
38.19445005,1,1395,13.30477755,Europe/Rome,,,,PARTANNA MONDELLO - CHIMERA,0,1395,1
38.19538413,1,1393,13.3064121,Europe/Rome,,,,PARTANNA MONDELLO - AMARILLI,0,1393,1
38.10093167,1,1392,13.36022167,Europe/Rome,,,,PARLAVECCHIO - TRICOMI,0,1392,1
38.07879667,1,427,13.40122667,Europe/Rome,,,,CIACULLI - BOZZO,0,427,1
38.19363133,1,426,13.31436753,Europe/Rome,,,,CHIRONE - PORTA DI MARE,0,426,1
38.19116,1,530,13.344096665,Europe/Rome,,,,CRISTOFORO COLOMBO - CARONIA ROBERTI,0,530,1
38.18965578,1,1503,13.28622711,Europe/Rome,,,,PIAZZA TOMMASO NATALE - STAZIONE FS,0,1503,1
38.11939451,1,2183,13.37064967,Europe/Rome,,,,VITTORIO EMANUELE - ISTITUTO NAUTICO,0,2183,1
38.11805877,1,2182,13.36724594,Europe/Rome,,,,VITTORIO EMANUELE - FONTANA DEL GARRAFFO,0,2182,1
38.08037,1,2181,13.43633833,Europe/Rome,,,,VITTORIO EMANUELE - EUROPA,0,2181,1
38.07639,1,2180,13.44668167,Europe/Rome,,,,VITTORIO EMANUELE - DE GASPERI,0,2180,1
38.11223227,1,2186,13.35298732,Europe/Rome,,,,VITTORIO EMANUELE - PORTA NUOVA,0,2186,1
38.16003234,1,229,13.34979147,Europe/Rome,,,,BONANNO 5,0,229,1
38.1193597,1,2184,13.37041497,Europe/Rome,,,,VITTORIO EMANUELE - ISTITUTO NAUTICO,0,2184,1
38.15481768,1,227,13.36643994,Europe/Rome,,,,BONANNO 3,0,227,1
38.15042421,1,226,13.36671889,Europe/Rome,,,,BONANNO 2,0,226,1
38.11874036,1,2189,13.36904839,Europe/Rome,,,,VITTORIO EMANUELE - S. MARIA DELLA CATENA,0,2189,1
38.11622498,1,2188,13.36270094,Europe/Rome,,,,VITTORIO EMANUELE - QUATTRO CANTI,0,2188,1
38.15419112,1,223,13.36142134,Europe/Rome,,,,BONANNO - MEZZ'ARANCIO,0,223,1
38.15427141,1,222,13.36090118,Europe/Rome,,,,BONANNO - MEZZ'ARANCIO,0,222,1
38.14922221,1,221,13.36002617,Europe/Rome,,,,BONANNO - FORESTALE,0,221,1
38.14981674,1,220,13.36254805,Europe/Rome,,,,BONANNO - FORESTALE,0,220,1
38.15193174,1,2211,13.32282863,Europe/Rome,,,,ZONA INDUSTRIALE - NENNI,0,2211,1
38.116495,1,2217,13.370525,Europe/Rome,,,,ALLORO - ABATELLIS,0,2217,1
38.08516145,1,2216,13.2946122,Europe/Rome,,,,FONTANA DEL DRAGO - PALERMO,0,2216,1
38.13561667,1,2214,13.30609333,Europe/Rome,,,,ZUMBO,0,2214,1
38.11361667,1,2219,13.366875,Europe/Rome,,,,GARIBALDI,0,2219,1
38.11522333,1,2218,13.36739833,Europe/Rome,,,,ALLORO - COCCHIERI,0,2218,1
38.08603167,1,151,13.33321479,Europe/Rome,,,,BACHELET 1,0,151,1
38.08748233,1,152,13.33511987,Europe/Rome,,,,BACHELET 2,0,152,1
38.107565,1,1161,13.38208667,Europe/Rome,,,,MESSINA MARINE - SAETTA,0,1161,1
38.16178167,1,1807,13.324525,Europe/Rome,,,,S. LORENZO - DEI QUARTIERI,0,1807,1
38.1579,1,1806,13.33089333,Europe/Rome,,,,S. LORENZO - CORSICA,0,1806,1
38.15833976,1,1805,13.3307245,Europe/Rome,,,,S. LORENZO - CORSICA,0,1805,1
38.16496255,1,1804,13.31815688,Europe/Rome,,,,S. LORENZO - COMMISSARIATO P.S.,0,1804,1
38.16795969,1,1803,13.3137357,Europe/Rome,,,,S. LORENZO - CLINICA STAGNO,0,1803,1
38.16927667,1,1802,13.31049333,Europe/Rome,,,,S. LORENZO - CLINICA STAGNO,0,1802,1
38.1685168,1,1801,13.31310893,Europe/Rome,,,,S. LORENZO - CLINICA STAGNO,0,1801,1
38.16286993,1,1800,13.32324784,Europe/Rome,,,,S. LORENZO - ASTORINO,0,1800,1
38.1594492,1,1809,13.33003432,Europe/Rome,,,,S. LORENZO - INGEGNEROS,0,1809,1
38.15963531,1,1808,13.3300293,Europe/Rome,,,,S. LORENZO - INGEGNEROS,0,1808,1
38.191534792,1,1948,13.28440521,Europe/Rome,,,,SFERRACAVALLO - PIAZZA TOMMASO NATALE,0,1948,1
38.14148248,1,1949,13.36696565,Europe/Rome,,,,SIMONE GULI' - CALCEDONIO,0,1949,1
38.19578608,1,1942,13.27992792,Europe/Rome,,,,SFERRACAVALLO - DELL'ARANCIO,0,1942,1
38.1960327,1,1943,13.27926464,Europe/Rome,,,,SFERRACAVALLO - DELL'ARANCIO,0,1943,1
38.19383564,1,1940,13.28247466,Europe/Rome,,,,SFERRACAVALLO - DELEGAZIONE,0,1940,1
38.1934395,1,1941,13.28274161,Europe/Rome,,,,SFERRACAVALLO - DELEGAZIONE,0,1941,1
38.194418606,1,1946,13.281767314,Europe/Rome,,,,SFERRACAVALLO - NICOLETTI,0,1946,1
38.19115618,1,1947,13.28482995,Europe/Rome,,,,SFERRACAVALLO - PASSAGGIO A LIVELLO,0,1947,1
38.19716574,1,1944,13.27778385,Europe/Rome,,,,SFERRACAVALLO - MANDERINO,0,1944,1
38.19723279,1,1945,13.27756226,Europe/Rome,,,,SFERRACAVALLO - MANDERINO,0,1945,1
38.15081608,1,818,13.34184414,Europe/Rome,,,,FANTE - INAIL,0,818,1
38.1489581767,1,819,13.34297186,Europe/Rome,,,,FANTE - PISCINA COMUNALE,0,819,1
38.08117261,1,810,13.37418213,Europe/Rome,,,,FALSOMIELE - VILLA ALBANESE,0,810,1
38.07564167,1,812,13.34978833,Europe/Rome,,,,FALSOMIELE 1,0,812,1
38.15207013,1,816,13.34105922,Europe/Rome,,,,FANTE - C.T.O.,0,816,1
38.15031626,1,817,13.3422537333,Europe/Rome,,,,FANTE - INAIL,0,817,1
38.10914684,1,1622,13.35374638,Europe/Rome,,,,RE RUGGERO,0,1622,1
38.15128549,1,1993,13.3317119,Europe/Rome,,,,STRASBURGO - BRIUCCIA,0,1993,1
38.12167979,1,1490,13.3336097,Europe/Rome,,,,PIAZZA NOCE,0,1490,1
38.09046822,1,1491,13.33144044,Europe/Rome,,,,PIAZZA PAGLIARELLI,0,1491,1
38.15242798,1,1492,13.33773494,Europe/Rome,,,,PIAZZA PAPA GIOVANNI PAOLO II,0,1492,1
38.11470241,1,1494,13.36204514,Europe/Rome,,,,PIAZZA PRETORIA,0,1494,1
38.12932647,1,1496,13.29838961,Europe/Rome,,,,PIAZZA S. CRISTINA - TINDARI,0,1496,1
38.16125908,1,1497,13.32568927,Europe/Rome,,,,PIAZZA S. LORENZO,0,1497,1
38.12124721,1,1499,13.35317373,Europe/Rome,,,,PIAZZA SAN FRANCESCO DI PAOLA,0,1499,1
38.08750192,1,423,13.37017626,Europe/Rome,,,,CHIAVELLI - VITALE,0,423,1
38.15058833,1,1994,13.332045,Europe/Rome,,,,STRASBURGO - BRIUCCIA,0,1994,1
38.09983134,1,1700,13.33165151,Europe/Rome,,,,REGIONE SICILIANA - VILLA TASCA,0,1700,1
38.08647233,1,1701,13.34985224,Europe/Rome,,,,REGIONE SICILIANA - VILLAGRAZIA,0,1701,1
38.08703033,1,1702,13.34962067,Europe/Rome,,,,REGIONE SICILIANA - VILLAGRAZIA,0,1702,1
38.15291513,1,1704,13.32080378,Europe/Rome,,,,REGIONE SICILIANA,0,1704,1
38.14855432,1,1705,13.33338171,Europe/Rome,,,,RESTIVO - DELLE MADONIE,0,1705,1
38.148336,1,1706,13.33340988,Europe/Rome,,,,RESTIVO - DELLE MADONIE,0,1706,1
38.14488295,1,1707,13.33564147,Europe/Rome,,,,RESTIVO - EMILIA,0,1707,1
38.14499388,1,1708,13.33548232,Europe/Rome,,,,RESTIVO - EMILIA,0,1708,1
38.14287264,1,1709,13.33685115,Europe/Rome,,,,RESTIVO - LAZIO,0,1709,1
38.15344833,1,1996,13.32969,Europe/Rome,,,,STRASBURGO - DANIMARCA,0,1996,1
38.10157833,1,1390,13.36117,Europe/Rome,,,,PARLAVECCHIO - S. ORSOLA,0,1390,1
38.1935798,1,1128,13.32216354,Europe/Rome,,,,MATTEI - TERSICORE,0,1128,1
38.191475,1,1129,13.32248,Europe/Rome,,,,MATTEI,0,1129,1
38.17523,1,1120,13.33457,Europe/Rome,,,,MATER DOLOROSA - CAMARINA,0,1120,1
38.17517667,1,1121,13.33432667,Europe/Rome,,,,MATER DOLOROSA - CAMARINA,0,1121,1
38.17376667,1,1122,13.33044833,Europe/Rome,,,,MATER DOLOROSA - MERCADANTE,0,1122,1
38.17346833,1,1123,13.32976,Europe/Rome,,,,MATER DOLOROSA - PETROSINO,0,1123,1
38.19373884,1,1124,13.3219488,Europe/Rome,,,,MATTEI - AFRODITE,0,1124,1
38.19217679,1,1125,13.32253888,Europe/Rome,,,,MATTEI - CALLIOPE,0,1125,1
38.19537254,1,1126,13.32106903,Europe/Rome,,,,MATTEI - COLLOTTI,0,1126,1
38.19489167,1,1127,13.32152,Europe/Rome,,,,MATTEI - GIUGNONE,0,1127,1
38.189735,1,524,13.354655,Europe/Rome,,,,CRISTOFORO COLOMBO - ABATE PALMERIO,0,524,1
38.16924,1,525,13.36677333,Europe/Rome,,,,CRISTOFORO COLOMBO - BELVEDERE MARE,0,525,1
38.16847667,1,526,13.366435,Europe/Rome,,,,CRISTOFORO COLOMBO - BELVEDERE,0,526,1
38.16830833,1,527,13.36646,Europe/Rome,,,,CRISTOFORO COLOMBO - BELVEDERE,0,527,1
38.11394167,1,1018,13.33240333,Europe/Rome,,,,LIBERO GRASSI,0,1018,1
38.11456419,1,1019,13.33233431,Europe/Rome,,,,LIBERO GRASSI - DEGLI EMIRI,0,1019,1
38.12978,1,522,13.36071208,Europe/Rome,,,,CRISPI - SCINA',0,522,1
38.18937833,1,523,13.35429167,Europe/Rome,,,,CRISTOFORO COLOMBO - ABATE PALMERIO,0,523,1
38.08615,1,1010,13.36611667,Europe/Rome,,,,LEVRIERE - ERMELLINO,0,1010,1
38.08271156,1,1011,13.36459516,Europe/Rome,,,,LEVRIERE - BASSOTTO,0,1011,1
38.08095845,1,1012,13.36128385,Europe/Rome,,,,LEVRIERE - RUMORE,0,1012,1
38.14646667,1,1234,13.331465,Europe/Rome,,,,NEBRODI - DELLE MADONIE,0,1234,1
38.14596,1,1237,13.33169333,Europe/Rome,,,,NEBRODI - SARDEGNA,0,1237,1
38.14963667,1,1231,13.32942667,Europe/Rome,,,,NEBRODI - BELGIO,0,1231,1
38.14972833,1,1233,13.329315,Europe/Rome,,,,NEBRODI - DE GASPERI,0,1233,1
38.1523626,1,1238,13.32271993,Europe/Rome,,,,NENNI - ACC. A29 VALLE,0,1238,1
38.15478574,1,1239,13.32038569,Europe/Rome,,,,NENNI - CROCE ROSSA ITALIANA,0,1239,1
38.07692462,1,438,13.40454206,Europe/Rome,,,,CIACULLI - GIBILROSSA,0,438,1
38.07698163,1,439,13.40451658,Europe/Rome,,,,CIACULLI - GIBILROSSA,0,439,1
38.08732459,1,436,13.39019358,Europe/Rome,,,,CIACULLI - GIARDINO DELLA MEMORIA,0,436,1
38.08735309,1,437,13.39026064,Europe/Rome,,,,CIACULLI - GIARDINO DELLA MEMORIA,0,437,1
38.07773011,1,434,13.40304136,Europe/Rome,,,,CIACULLI - DI STEFANO,0,434,1
38.07790747,1,435,13.40285093,Europe/Rome,,,,CIACULLI - DI STEFANO,0,435,1
38.07962167,1,432,13.40024333,Europe/Rome,,,,CIACULLI - CASSARO BONANNO,0,432,1
38.07008023,1,433,13.4166804,Europe/Rome,,,,CIACULLI - CROCE VERDE,0,433,1
38.08418533,1,430,13.39499474,Europe/Rome,,,,CIACULLI - CARRUBELLA,0,430,1
38.07975594,1,431,13.40002119,Europe/Rome,,,,CIACULLI - CASSARO BONANNO,0,431,1
38.09681784,1,238,13.38245256,Europe/Rome,,,,BRANCACCIO,0,238,1
38.10787633,1,239,13.35385501,Europe/Rome,,,,BRASA,0,239,1
38.09630833,1,236,13.382625,Europe/Rome,,,,BRANCACCIO - S. CIRO,0,236,1
38.09587833,1,237,13.38297333,Europe/Rome,,,,BRANCACCIO - S. CIRO,0,237,1
38.15491997,1,230,13.36642519,Europe/Rome,,,,BONANNO 6,0,230,1
38.1504453,1,231,13.36662635,Europe/Rome,,,,BONANNO 7,0,231,1
38.13289449,1,232,13.3353672,Europe/Rome,,,,BORREMANS - RUBENS,0,232,1
38.13286667,1,233,13.33491333,Europe/Rome,,,,BORREMANS - RUBENS,0,233,1
38.11514289,1,2228,13.34952883,Europe/Rome,,,,IMERA - D'OSSUNA,0,2228,1
38.13443333,1,2229,13.32420667,Europe/Rome,,,,BERNINI - MARCHESANO,0,2229,1
38.11023626,1,2226,13.35603683,Europe/Rome,,,,CADORNA,0,2226,1
38.108335,1,2224,13.35696,Europe/Rome,,,,TUKORY - FILICIUZZA,0,2224,1
38.10844167,1,2225,13.35464167,Europe/Rome,,,,RE RUGGERO,0,2225,1
38.118135,1,2222,13.36858333,Europe/Rome,,,,PIAZZA MARINA,0,2222,1
38.10876333,1,2223,13.35852667,Europe/Rome,,,,TUKORY - ARCOLEO,0,2223,1
38.18294544,1,2220,13.30697099,Europe/Rome,,,,FONDO RAFFO,0,2220,1
38.18287267,1,2221,13.30695806,Europe/Rome,,,,FONDO RAFFO,0,2221,1
38.113305,1,1,13.35223667,Europe/Rome,,,,A. AMEDEO - COLONNA ROTTA,0,1,1
38.15031982,1,146,13.33420896,Europe/Rome,,,,AUSONIA - POSTE,0,146,1
38.14264519,1,147,13.35597181,Europe/Rome,,,,AUTONOMIA SICILIANA - D'AMELIO,0,147,1
38.151445,1,145,13.33319,Europe/Rome,,,,AUSONIA - BRIUCCIA,0,145,1
38.12651069,1,142,13.34042653,Europe/Rome,,,,AURISPA - MERENDA,0,142,1
38.1300469,1,140,13.29225674,Europe/Rome,,,,AUGUSTA - PIAZZA S. PAOLO,0,140,1
38.12637282,1,141,13.34008971,Europe/Rome,,,,AURISPA - MERENDA,0,141,1
38.1417413,1,149,13.35382442,Europe/Rome,,,,AUTONOMIA SICILIANA - FERRI,0,149,1
38.10018,1,2088,13.35625961,Europe/Rome,,,,UGHETTI - MADONIA,0,2088,1
38.10166171,1,2089,13.35591093,Europe/Rome,,,,UGHETTI - TRICOMI,0,2089,1
38.12873142,1,2082,13.32683242,Europe/Rome,,,,UDITORE - LEONARDO DA VINCI,0,2082,1
38.13331135,1,2083,13.32248056,Europe/Rome,,,,UDITORE - PIAZZA ALFONSO DE' LIGUORI,0,2083,1
38.1299992,1,2080,13.32560728,Europe/Rome,,,,UDITORE - CIMABUE,0,2080,1
38.12921488,1,2081,13.32646182,Europe/Rome,,,,UDITORE - LEONARDO DA VINCI,0,2081,1
38.13367998,1,2086,13.32221299,Europe/Rome,,,,UDITORE - TIEPOLO,0,2086,1
38.13219259,1,2084,13.32363457,Europe/Rome,,,,UDITORE - SERIO,0,2084,1
38.13222802,1,2085,13.32349973,Europe/Rome,,,,UDITORE - SERIO,0,2085,1
38.08686543,1,1833,13.3761777,Europe/Rome,,,,S. M. DI GESU' - TRABIA,0,1833,1
38.08938478,1,1830,13.37503646,Europe/Rome,,,,S. M. DI GESU' - REGIONE SICILIANA,0,1830,1
38.09531464,1,1837,13.37102458,Europe/Rome,,,,S. M. DI GESU' - VILLA ALHATES,0,1837,1
38.08571803,1,1835,13.37678924,Europe/Rome,,,,S. M. DI GESU' - VERDONE,0,1835,1
38.09704657,1,2154,13.36666256,Europe/Rome,,,,VILLAGRAZIA - OS1,0,2154,1
38.09596688,1,2155,13.36503982,Europe/Rome,,,,VILLAGRAZIA - OSPEDALE GUADAGNA,0,2155,1
38.09182167,1,2157,13.356765,Europe/Rome,,,,VILLAGRAZIA - PONTE ROTTO,0,2157,1
38.09204333,1,2151,13.3576,Europe/Rome,,,,VILLAGRAZIA - ERACLEA MINOA,0,2151,1
38.08463184,1,2152,13.33721861,Europe/Rome,,,,VILLAGRAZIA - MARCHESE,0,2152,1
38.15720342,1,933,13.31825072,Europe/Rome,,,,LA MALFA - NUOVA,0,933,1
38.16421667,1,932,13.31145667,Europe/Rome,,,,LA MALFA - FIGC,0,932,1
38.16401863,1,931,13.312012,Europe/Rome,,,,LA MALFA - FIGC,0,931,1
38.16497167,1,930,13.30979833,Europe/Rome,,,,LA MALFA - CNR,0,930,1
38.09319667,1,2158,13.35941,Europe/Rome,,,,VILLAGRAZIA - S. FILIPPO,0,2158,1
38.08667648,1,2159,13.34543422,Europe/Rome,,,,VILLAGRAZIA - SAN FRANCESCO DI SALES,0,2159,1
38.158585,1,935,13.317085,Europe/Rome,,,,LA MALFA - RIPARTIZIONE ANNONA,0,935,1
38.13873161,1,1951,13.36772472,Europe/Rome,,,,SIMONE GULI' - CANTIERE NAVALE,0,1951,1
38.14136329,1,1950,13.36714938,Europe/Rome,,,,SIMONE GULI' - CALCEDONIO,0,1950,1
38.10108267,1,1953,13.34894077,Europe/Rome,,,,SOLARINO,0,1953,1
38.13969252,1,1952,13.36778104,Europe/Rome,,,,SIMONE GULI',0,1952,1
38.08906833,1,829,13.29990833,Europe/Rome,,,,FONTANA DEL DRAGO 2,0,829,1
38.08734667,1,828,13.29758833,Europe/Rome,,,,FONTANA DEL DRAGO 1,0,828,1
38.11855,1,825,13.34781167,Europe/Rome,,,,FINOCCHIARO APRILE - RE FEDERICO,0,825,1
38.11809833,1,824,13.34482833,Europe/Rome,,,,FINOCCHIARO APRILE - AMATO,0,824,1
38.08602833,1,827,13.29592667,Europe/Rome,,,,FONTANA DEL DRAGO - CANNOLICCHIO,0,827,1
38.11882477,1,826,13.35015759,Europe/Rome,,,,FINOCCHIARO APRILE - TRIBUNALE,0,826,1
38.14886307,1,820,13.34293074,Europe/Rome,,,,FANTE - PISCINA COMUNALE,0,820,1
38.08155475,1,1483,13.30969513,Europe/Rome,,,,PIAZZA MOLARA,0,1483,1
38.08163181,1,1482,13.30971658,Europe/Rome,,,,PIAZZA MOLARA,0,1482,1
38.0972283,1,9016,13.3996228,Europe/Rome,,,,SAN SERGIO,0,9016,1
38.1093740933,1,1480,13.3084819767,Europe/Rome,,,,PIAZZA MICCA,0,1480,1
38.16374878,1,1487,13.33244364,Europe/Rome,,,,PIAZZA NISCEMI,0,1487,1
38.12994568,1,1486,13.35176341,,,70000,,PIAZZA MORDINI,0,1486,1
38.20749444,1,1485,13.32689077,Europe/Rome,,,,PIAZZA MONDELLO,0,1485,1
38.20793704,1,1484,13.32690015,Europe/Rome,,,,PIAZZA MONDELLO,0,1484,1
38.12169772,1,1489,13.33373174,Europe/Rome,,,,PIAZZA NOCE,0,1489,1
38.16350566,1,1488,13.3325036,Europe/Rome,,,,PIAZZA NISCEMI,0,1488,1
38.1012067,1,9018,13.3912596,Europe/Rome,,,,BIONE,0,9018,1
38.0952369,1,9019,13.4092867,Europe/Rome,,,,DI VITTORIO,0,9019,1
38.166265,1,1713,13.32059667,Europe/Rome,,,,RESURREZIONE - DE CERVANTES,0,1713,1
38.14353607,1,1712,13.33636299,Europe/Rome,,,,RESTIVO - UMBRIA,0,1712,1
38.14642493,1,1711,13.33456725,Europe/Rome,,,,RESTIVO - SARDEGNA,0,1711,1
38.14674661,1,1710,13.33446533,Europe/Rome,,,,RESTIVO - SARDEGNA,0,1710,1
38.16887,1,1717,13.32256833,Europe/Rome,,,,RESURREZIONE - FLORIO,0,1717,1
38.17055833,1,1716,13.32719333,Europe/Rome,,,,RESURREZIONE - DUCA DEGLI ABRUZZI,0,1716,1
38.17037167,1,1715,13.326565,Europe/Rome,,,,RESURREZIONE - DUCA DEGLI ABRUZZI,0,1715,1
38.16604167,1,1714,13.320475,Europe/Rome,,,,RESURREZIONE - DE CERVANTES,0,1714,1
38.16997833,1,1719,13.32485833,Europe/Rome,,,,RESURREZIONE - PIAZZA MARIA CONSOLATRICE,0,1719,1
38.168595,1,1718,13.32206833,Europe/Rome,,,,RESURREZIONE - FLORIO,0,1718,1
38.11665441,1,798,13.28871891,Europe/Rome,,,,FALCONARA 4,0,798,1
38.18908263,1,1271,13.31236573,Europe/Rome,,,,OLIMPO,0,1271,1
38.09752,1,1139,13.41713667,Europe/Rome,,,,MESSINA MARINE - BANDITA,0,1139,1
38.097535,1,1138,13.41647333,Europe/Rome,,,,MESSINA MARINE - BANDITA,0,1138,1
38.10438167,1,1133,13.39075333,Europe/Rome,,,,MESSINA MARINE - ALAGNA,0,1133,1
38.08498789,1,1274,13.32635571,Europe/Rome,,,,OLIO DI LINO 1,0,1274,1
38.09671667,1,1131,13.42687833,Europe/Rome,,,,MESSINA MARINE - ACQUA DEI CORSARI,0,1131,1
38.20467294,1,1130,13.31804651,Europe/Rome,,,,MERCURIO,0,1130,1
38.09682333,1,1137,13.42538333,Europe/Rome,,,,MESSINA MARINE - AMMIRAGLIO CRISTODULO,0,1137,1
38.10237,1,1136,13.39612333,Europe/Rome,,,,MESSINA MARINE - ALBRICCI,0,1136,1
38.102385,1,1135,13.395825,Europe/Rome,,,,MESSINA MARINE - ALBRICCI,0,1135,1
38.10435167,1,1134,13.39095167,Europe/Rome,,,,MESSINA MARINE - ALAGNA,0,1134,1
38.08123067,1,1276,13.32070559,Europe/Rome,,,,OLIO DI LINO 11,0,1276,1
38.12763846,1,519,13.36231068,Europe/Rome,,,,CRISPI - PORTO,0,519,1
38.12491344,1,518,13.36387172,Europe/Rome,,,,CRISPI - PIAZZA 13 VITTIME,0,518,1
38.084395,1,1009,13.365535,Europe/Rome,,,,LEVRIERE - BASSOTTO,0,1009,1
38.08016544,1,1008,13.35903333,Europe/Rome,,,,LEVRIERE - ANTILOPE,0,1008,1
38.1462222767,1,1007,13.3446296533,Europe/Rome,,,,LEONI - FAVORITA,0,1007,1
38.1460145767,1,1006,13.3449760367,Europe/Rome,,,,LEONI - FAVORITA,0,1006,1
38.14536628,1,1005,13.34562476,Europe/Rome,,,,LEONI - DON BOSCO,0,1005,1
38.12775827,1,1004,13.32638464,Europe/Rome,,,,LEONARDO DA VINCI - UDITORE,0,1004,1
38.12657083,1,1003,13.31134737,Europe/Rome,,,,LEONARDO DA VINCI - TOMASI DI LAMPEDUSA,0,1003,1
38.12702333,1,1002,13.32099833,Europe/Rome,,,,LEONARDO DA VINCI - SILVESTRI,0,1002,1
38.12486807,1,516,13.36365044,Europe/Rome,,,,CRISPI - CAPITANERIA,0,516,1
38.10108866,1,620,13.38247418,Europe/Rome,,,,DEI MILLE - CAMPO,0,620,1
38.09359912,1,627,13.40623008,Europe/Rome,,,,DEI MILLE - CILUFFO,0,627,1
38.09373389,1,626,13.40561159,Europe/Rome,,,,DEI MILLE - CILUFFO,0,626,1
38.09685238,1,625,13.39615881,Europe/Rome,,,,DEI MILLE - CAVALLOTTI,0,625,1
38.09712978,1,624,13.39527557,Europe/Rome,,,,DEI MILLE - CAVALLOTTI,0,624,1
38.09630145,1,629,13.39849651,Europe/Rome,,,,DEI MILLE - CORSELLI,0,629,1
38.11764306,1,2,13.35087776,Europe/Rome,,,,A. AMEDEO - LASCARIS,0,2,1
38.18267441,1,11,13.29064198,Europe/Rome,,,,ACC. A29 MONTE 1,0,11,1
38.17868533,1,10,13.29322495,Europe/Rome,,,,ACC. A29 MONTE - WELLS,0,10,1
38.17653679,1,13,13.2946948,Europe/Rome,,,,ACC. A29 MONTE 3,0,13,1
38.17544451,1,15,13.29613572,Europe/Rome,,,,ACC. A29 VALLE - COSTANTINO,0,15,1
38.16615734,1,14,13.30447922,Europe/Rome,,,,ACC. A29 MONTE 4,0,14,1
38.17104174,1,17,13.29995519,Europe/Rome,,,,ACC. A29 VALLE 1,0,17,1
38.16714692,1,16,13.3051694,Europe/Rome,,,,ACC. A29 VALLE - POSTE,0,16,1
38.18180992,1,19,13.29187637,Europe/Rome,,,,ACC. A29 VALLE 3,0,19,1
38.17995876,1,18,13.29307532,Europe/Rome,,,,ACC. A29 VALLE 2,0,18,1
38.15955833,1,928,13.31626833,Europe/Rome,,,,LA MALFA - AST,0,928,1
38.17982989,1,209,13.30983996,Europe/Rome,,,,BIANCHINI,0,209,1
38.05424738,1,685,13.3113459,Europe/Rome,,,,DEL FANTE - DEGLI ALPINI,0,685,1
38.15923438,1,684,13.33562228,Europe/Rome,,,,DEL FANTE - CASTELNUOVO,0,684,1
38.05429229,1,686,13.31130177,Europe/Rome,,,,DEL FANTE - DEGLI ALPINI,0,686,1
38.13214591,1,2231,13.32679018,Europe/Rome,,,,BERNINI - CIMABUE,0,2231,1
38.13317333,1,2230,13.32524333,Europe/Rome,,,,BERNINI - MINEO,0,2230,1
38.10289587,1,2233,13.36217559,Europe/Rome,,,,PARLAVECCHIO - METRO',0,2233,1
38.12055578,1,2232,13.35282637,Europe/Rome,,,,VILLA FILIPPINA,0,2232,1
38.1225196,1,2234,13.36273849,Europe/Rome,,,,CAVOUR - PREFETTURA,0,2234,1
38.12674622,1,2237,13.33674546,Europe/Rome,,,,FALCANDO,0,2237,1
38.16568,1,680,13.33056,Europe/Rome,,,,DEI QUARTIERI - FLORIO,0,680,1
38.15295833,1,683,13.34039,,,60000,,DEL FANTE - CASSARA',0,683,1
38.15659988,1,682,13.33792537,Europe/Rome,,,,DEL FANTE - CASE ROCCA,0,682,1
38.16000071,1,228,13.34985048,Europe/Rome,,,,BONANNO 4,0,228,1
38.10102829,1,2090,13.35597165,Europe/Rome,,,,UGHETTI - TRICOMI,0,2090,1
38.08893268,1,2092,13.35314935,Europe/Rome,,,,USIGNOLO,0,2092,1
38.14913543,1,225,13.35993826,Europe/Rome,,,,BONANNO 1,0,225,1
38.14990111,1,224,13.3626017,Europe/Rome,,,,BONANNO - RAMPOLLA,0,224,1
38.09259159,1,1829,13.37276533,Europe/Rome,,,,S. M. DI GESU' - MIRAGLIA,0,1829,1
38.08451167,1,1824,13.37720167,Europe/Rome,,,,S. M. DI GESU' - FALSOMIELE,0,1824,1
38.09770831,1,1827,13.37013468,Europe/Rome,,,,S. M. DI GESU' - GUADAGNA,0,1827,1
38.16398952,1,1820,13.32043964,Europe/Rome,,,,S. LORENZO - VILLA ADRIANA,0,1820,1
38.0870227,1,2147,13.34222227,Europe/Rome,,,,VILLAGRAZIA - GIRGENTI,0,2147,1
38.16542103,1,929,13.30886941,Europe/Rome,,,,LA MALFA - CNR,0,929,1
38.09112333,1,2145,13.35527167,Europe/Rome,,,,VILLAGRAZIA - FOLAGA,0,2145,1
38.08653293,1,2144,13.33886817,Europe/Rome,,,,VILLAGRAZIA - ETNA,0,2144,1
38.08664587,1,2143,13.33892047,Europe/Rome,,,,VILLAGRAZIA - ETNA,0,2143,1
38.0897238,1,2142,13.35308388,Europe/Rome,,,,VILLAGRAZIA - DELL'USIGNOLO,0,2142,1
38.08958667,1,2141,13.352715,Europe/Rome,,,,VILLAGRAZIA - DELL'USIGNOLO,0,2141,1
38.08688833,1,2140,13.34355167,Europe/Rome,,,,VILLAGRAZIA - DELLA VISITAZIONE,0,2140,1
38.10371058,1,921,13.363606235,Europe/Rome,,,,LA FRANCA - DURANTE,0,921,1
38.16073355,1,924,13.31548281,Europe/Rome,,,,LA MALFA,0,924,1
38.16603526,1,925,13.30752867,Europe/Rome,,,,LA MALFA - ACC. A29 VALLE,0,925,1
38.16626333,1,926,13.30688333,Europe/Rome,,,,LA MALFA - ACC. A29 VALLE,0,926,1
38.08698998,1,2148,13.34211499,Europe/Rome,,,,VILLAGRAZIA - GIRGENTI,0,2148,1
38.14065343,1,1920,13.33828077,Europe/Rome,,,,SCIUTI - DELLE MAGNOLIE,0,1920,1
38.13995517,1,1921,13.33861738,Europe/Rome,,,,SCIUTI - DELLE MAGNOLIE,0,1921,1
38.13648062,1,1922,13.34080741,Europe/Rome,,,,SCIUTI - GIUSTI,0,1922,1
38.13609177,1,1923,13.340955,Europe/Rome,,,,SCIUTI - GIUSTI,0,1923,1
38.14156502,1,1924,13.33760099,Europe/Rome,,,,SCIUTI - LAZIO,0,1924,1
38.13283622,1,1925,13.3430055,Europe/Rome,,,,SCIUTI - NOTARBARTOLO,0,1925,1
38.13287827,1,1926,13.34306717,Europe/Rome,,,,SCIUTI - NOTARBARTOLO,0,1926,1
38.13876008,1,1927,13.33944619,Europe/Rome,,,,SCIUTI - PRINCIPE DI PATERNO',0,1927,1
38.13829297,1,1928,13.33964987,Europe/Rome,,,,SCIUTI - PRINCIPE DI PATERNO',0,1928,1
38.13409138,1,1929,13.34228531,Europe/Rome,,,,SCIUTI - RAPISARDI,0,1929,1
38.08941,1,832,13.30024833,Europe/Rome,,,,FONTANA DEL DRAGO 2,0,832,1
38.08692833,1,833,13.29703167,Europe/Rome,,,,FONTANA DEL DRAGO 1,0,833,1
38.09115167,1,830,13.30244333,Europe/Rome,,,,FONTANA DEL DRAGO 3,0,830,1
38.09125833,1,831,13.30250667,Europe/Rome,,,,FONTANA DEL DRAGO 3,0,831,1
38.11342667,1,836,13.37778833,Europe/Rome,,,,FORO UMBERTO I - PADRE MESSINA,0,836,1
38.1165795,1,837,13.37405741,Europe/Rome,,,,FORO UMBERTO I - PIAZZA KALSA,0,837,1
38.11555602,1,835,13.37600335,Europe/Rome,,,,FORO UMBERTO I - LINCOLN,0,835,1
38.11785619,1,838,13.37272838,Europe/Rome,,,,FORO UMBERTO I - PORTA FELICE,0,838,1
38.11788147,1,839,13.37307738,Europe/Rome,,,,FORO UMBERTO I - PORTA FELICE,0,839,1
38.11599707,1,3,13.35099846,Europe/Rome,,,,A. AMEDEO - MERCATO DELLE PULCI,0,3,1
38.11047059,1,1986,13.3659848,,,20000,,STAZIONE CENTRALE - ROMA,0,1986,1
38.122754,1,9007,13.3292449,Europe/Rome,,,,SETTEMBRINI - DI BLASI,0,9007,1
38.1270797,1,9006,13.3297537,Europe/Rome,,,,SCOBAR,0,9006,1
38.1274238,1,9005,13.3293808,Europe/Rome,,,,EINSTEIN,0,9005,1
38.1239572,1,9004,13.3289972,Europe/Rome,,,,DI GIORGIO - DI BLASI,0,9004,1
38.1207719,1,9003,13.328625,Europe/Rome,,,,PERPIGNANO,0,9003,1
38.0933425,1,9002,13.4104468,Europe/Rome,,,,LAUDICINA,0,9002,1
38.0937236,1,9001,13.4107681,Europe/Rome,,,,LAUDICINA,0,9001,1
38.1107929,1,9009,13.3300096,Europe/Rome,,,,PITRE',0,9009,1
38.1134559,1,9008,13.3296481,Europe/Rome,,,,PORTELLO - ZISA,0,9008,1
38.11545586,1,785,13.29089158,Europe/Rome,,,,FALCONARA - FRANCESCO DA PICCIANO,0,785,1
38.11553311,1,786,13.29093195,Europe/Rome,,,,FALCONARA - FRANCESCO DA PICCIANO,0,786,1
38.11839445,1,780,13.29752471,Europe/Rome,,,,FALCONARA - AI VILLINI A S. ISIDORO,0,780,1
38.11739616,1,781,13.29406857,Europe/Rome,,,,FALCONARA - ANDREA DA BURGIO,0,781,1
38.15206766,1,1728,13.33651695,Europe/Rome,,,,RESUTTANA - SACRA FAMIGLIA,0,1728,1
38.15232041,1,1729,13.33600759,Europe/Rome,,,,RESUTTANA - SACRA FAMIGLIA,0,1729,1
38.15516147,1,1726,13.33233029,Europe/Rome,,,,RESUTTANA - BARTOLINO,0,1726,1
38.15314722,1,1727,13.33500981,Europe/Rome,,,,RESUTTANA - BRIUCCIA,0,1727,1
38.15599,1,1724,13.331915,Europe/Rome,,,,RESUTTANA - ALDISIO,0,1724,1
38.15604507,1,1725,13.33195617,Europe/Rome,,,,RESUTTANA - BARTOLINO,0,1725,1
38.16488,1,1722,13.31951167,Europe/Rome,,,,RESURREZIONE - VILLA ADRIANA,0,1722,1
38.1514177379,1,1723,13.3377020271,Europe/Rome,,,,RESUTTANA,0,1723,1
38.169955,1,1720,13.32446833,Europe/Rome,,,,RESURREZIONE - PIAZZA MARIA CONSOLATRICE,0,1720,1
38.164687425,1,1721,13.31932655,Europe/Rome,,,,RESURREZIONE - VILLA ADRIANA,0,1721,1
38.06879667,1,60,13.32732333,Europe/Rome,,,,ALTOFONTE - CIRAULO 1 MONTE,0,60,1
38.068895,1,61,13.32728833,Europe/Rome,,,,ALTOFONTE - CIRAULO 1 VALLE,0,61,1
38.06728865,1,63,13.32637981,Europe/Rome,,,,ALTOFONTE - CIRAULO 2 VALLE,0,63,1
38.07092833,1,64,13.32770667,Europe/Rome,,,,ALTOFONTE - MOLLO,0,64,1
38.07105155,1,65,13.32767665,Europe/Rome,,,,ALTOFONTE - MOLLO,0,65,1
38.07220234,1,66,13.32838744,Europe/Rome,,,,ALTOFONTE - MONTAGNA,0,66,1
38.07226041,1,67,13.32832307,Europe/Rome,,,,ALTOFONTE - MONTAGNA,0,67,1
38.06478945,1,68,13.32472756,Europe/Rome,,,,ALTOFONTE - MUSSO,0,68,1
38.06467167,1,69,13.32471667,Europe/Rome,,,,ALTOFONTE - MUSSO,0,69,1
38.10419764,1,1589,13.37670609,Europe/Rome,,,,PONTE AMMIRAGLIO - BUONRIPOSO,0,1589,1
38.13211966,1,406,13.29776086,Europe/Rome,,,,CENTURIPE - MOZIA,0,406,1
38.12550029,1,1582,13.35649431,,,80000,,POLITEAMA - TURATI,0,1582,1
38.10355258,1,1583,13.3296499,Europe/Rome,,,,POLLACI,0,1583,1
38.12465534,1,1580,13.35558671,Europe/Rome,,,,POLITEAMA,0,1580,1
38.12501366,1,1581,13.35743845,,,80000,,POLITEAMA - AMARI,0,1581,1
38.08257167,1,1586,13.43423667,Europe/Rome,,,,POMARA - FIGURELLA,0,1586,1
38.08355936,1,1587,13.43394041,Europe/Rome,,,,POMARA - NOVELLI,0,1587,1
38.08504,1,1584,13.43355,Europe/Rome,,,,POMARA - BELVEDERE,0,1584,1
38.08551833,1,1585,13.43346833,Europe/Rome,,,,POMARA - BELVEDERE,0,1585,1
38.13982167,1,1038,13.345845,Europe/Rome,,,,LIBERTA' - UGDULENA,0,1038,1
38.140235,1,1039,13.34558333,Europe/Rome,,,,LIBERTA' - UGDULENA,0,1039,1
38.14161538,1,1032,13.34469795,Europe/Rome,,,,LIBERTA' - MATTEOTTI,0,1032,1
38.14192,1,1033,13.34443,Europe/Rome,,,,LIBERTA' - MATTEOTTI,0,1033,1
38.14437,1,1030,13.34291833,Europe/Rome,,,,LIBERTA' - LAZIO,0,1030,1
38.07950997,1,505,13.30413088,Europe/Rome,,,,CORPO DI GUARDIA,0,505,1
38.12659667,1,1036,13.35443333,Europe/Rome,,,,LIBERTA' - QUINTINO SELLA,0,1036,1
38.126399705,1,1037,13.3544892325,Europe/Rome,,,,LIBERTA' - QUINTINO SELLA,0,1037,1
38.13430167,1,1034,13.34946,Europe/Rome,,,,LIBERTA' - NOTARBARTOLO,0,1034,1
38.13321056,1,1035,13.35007846,Europe/Rome,,,,LIBERTA' - NOTARBARTOLO,0,1035,1
38.15513139,1,1212,13.32463471,Europe/Rome,,,,MONTECARLO,0,1212,1
38.14107144,1,1213,13.35800173,Europe/Rome,,,,MONTEPELLEGRINO - AMMIRAGLIO RIZZO,0,1213,1
38.09577289,1,632,13.40061484,Europe/Rome,,,,DEI MILLE - DEL CARMELO,0,632,1
38.09924817,1,633,13.38859823,Europe/Rome,,,,DEI MILLE - D'ORFEO,0,633,1
38.13948051,1,1216,13.35804194,Europe/Rome,,,,MONTEPELLEGRINO - LORIA,0,1216,1
38.09315723,1,635,13.40772299,Europe/Rome,,,,DEI MILLE - FONDO VITALE,0,635,1
38.0978175,1,,13.345395835,Europe/Rome,,,,PARCHEGGIO BASILE,1,30000,1
38.13945228,1,1215,13.35828871,Europe/Rome,,,,MONTEPELLEGRINO - LORIA,0,1215,1
38.10854,1,638,13.37101333,Europe/Rome,,,,DEI MILLE - INGRASSIA,0,638,1
38.09230645,1,639,13.41040716,Europe/Rome,,,,DEI MILLE - LAUDICINA,0,639,1
38.13646834,1,1218,13.35859485,Europe/Rome,,,,MONTEPELLEGRINO - MERCATO,0,1218,1
38.15937889,1,927,13.31651831,Europe/Rome,,,,LA MALFA - AST,0,927,1
38.11732335,1,782,13.29402536,Europe/Rome,,,,FALCONARA - ANDREA DA BURGIO,0,782,1
38.1956666,1,1104,13.33193198,Europe/Rome,,,,MARGHERITA DI SAVOIA - MATER DEI,0,1104,1
38.14368268,1,1451,13.36743236,Europe/Rome,,,,PIAZZA ACQUASANTA MONTE,0,1451,1
38.1437099,1,1452,13.36756203,Europe/Rome,,,,PIAZZA ACQUASANTA VALLE,0,1452,1
38.19584577,1,1101,13.33204329,Europe/Rome,,,,MARGHERITA DI SAVOIA - DELLE PALME,0,1101,1
38.13007481,1,1458,13.29713237,Europe/Rome,,,,PIAZZA ARMERINA - MOZIA,0,1458,1
38.12975046,1,1459,13.29354554,Europe/Rome,,,,PIAZZA ARMERINA - PIAZZA S. PAOLO,0,1459,1
38.1930453,1,1109,13.33246842,Europe/Rome,,,,MARGHERITA DI SAVOIA - PIAZZA CABOTO,0,1109,1
38.11466021,1,789,13.29462111,Europe/Rome,,,,FALCONARA - PIAZZA BAIDA,0,789,1
38.16372,1,681,13.33059333,Europe/Rome,,,,DEI QUARTIERI - S. LORENZO,0,681,1
38.11714321,1,959,13.34934489,Europe/Rome,,,,LASCARIS - IMERA,0,959,1
38.11203904,1,216,13.30818731,Europe/Rome,,,,BOLOGNI,0,216,1
38.05789571,1,214,13.31523472,Europe/Rome,,,,BLANDINO,0,214,1
38.0579492,1,215,13.3152701,Europe/Rome,,,,BLANDINO,0,215,1
38.12662434,1,213,13.3422325,Europe/Rome,,,,BIXIO - AURISPA,0,213,1
38.18100427,1,210,13.31055343,Europe/Rome,,,,BIANCHINI - D'ALVISE,0,210,1
38.06296172,1,211,13.32257912,Europe/Rome,,,,BIVIO PIANA,0,211,1
38.15620805,1,218,13.35743515,Europe/Rome,,,,BONANNO - CASTELLO UTVEGGIO,0,218,1
38.15632226,1,219,13.35751843,Europe/Rome,,,,BONANNO - CASTELLO UTVEGGIO,0,219,1
38.11776833,1,4,13.35115667,Europe/Rome,,,,A. AMEDEO - TRIBUNALE,0,4,1
38.20104319,1,1856,13.26754854,Europe/Rome,,,,S.S. 113 - BELVEDERE,0,1856,1
38.0755427,1,2173,13.33160877,Europe/Rome,,,,VILLAGRAZIA 9,0,2173,1
38.09482597,1,2170,13.36246759,Europe/Rome,,,,VILLAGRAZIA - CAPRICORNO,0,2170,1
38.09470776,1,2171,13.36240992,Europe/Rome,,,,VILLAGRAZIA - CAPRICORNO,0,2171,1
38.14803167,1,918,13.35664,Europe/Rome,,,,KING - SCALA VECCHIA,0,918,1
38.07575833,1,2174,13.44867,Europe/Rome,,,,VITTORIO EMANUELE - AMARI,0,2174,1
38.07791697,1,2175,13.44173625,Europe/Rome,,,,VITTORIO EMANUELE - ARENA,0,2175,1
38.11063779,1,914,13.35001338,Europe/Rome,,,,INDIPENDENZA - PISANI,0,914,1
38.12829525,1,917,13.35627652,Europe/Rome,,,,ISIDORO CARINI,0,917,1
38.17331568,1,916,13.33718484,Europe/Rome,,,,INGRESSO FAVORITA,0,916,1
38.11131667,1,911,13.35062,Europe/Rome,,,,INDIPENDENZA,0,911,1
38.14648142,1,910,13.35114143,Europe/Rome,,,,IMPERATORE FEDERICO,0,910,1
38.11023167,1,913,13.35031167,Europe/Rome,,,,INDIPENDENZA - PISANI,0,913,1
38.11078833,1,912,13.35190833,Europe/Rome,,,,INDIPENDENZA - PALAZZO REALE,0,912,1
38.12646167,1,1933,13.338195,Europe/Rome,,,,SERRADIFALCO - AURISPA,0,1933,1
38.12540667,1,1932,13.33857167,Europe/Rome,,,,SERRADIFALCO - AURISPA,0,1932,1
38.18029592,1,1931,13.31563776,Europe/Rome,,,,SENOCRATE DI AGRIGENTO,0,1931,1
38.13446363,1,1930,13.341981825,Europe/Rome,,,,SCIUTI - RAPISARDI,0,1930,1
38.12406099,1,1937,13.33963528,Europe/Rome,,,,SERRADIFALCO - CRISPI,0,1937,1
38.12752136,1,1934,13.3377175,Europe/Rome,,,,SERRADIFALCO - BERNABEI,0,1934,1
38.12171988,1,1939,13.34037423,Europe/Rome,,,,SERRADIFALCO - RAZZA,0,1939,1
38.20085833,1,847,13.323435,Europe/Rome,,,,GALATEA - PARCHEGGIO,0,847,1
38.20091833,1,846,13.323385,Europe/Rome,,,,GALATEA - PARCHEGGIO,0,846,1
38.19994667,1,845,13.32152333,Europe/Rome,,,,GALATEA - CIANE,0,845,1
38.20011667,1,844,13.32201667,Europe/Rome,,,,GALATEA - CIANE,0,844,1
38.15573091,1,843,13.32492651,Europe/Rome,,,,FRANCIA - NEBRODI,0,843,1
38.15628946,1,842,13.32599095,Europe/Rome,,,,FRANCIA - NEBRODI,0,842,1
38.15479634,1,841,13.32281436,Europe/Rome,,,,PARCHEGGIO FRANCIA,0,841,1
38.1136527833,1,840,13.3772803667,Europe/Rome,,,,FORO UMBERTO I - VILLA GIULIA,0,840,1
38.198775,1,848,13.31928667,Europe/Rome,,,,GALATEA - SALINE,0,848,1
38.0995616,1,9032,13.3946046,Europe/Rome,,,,SPERONE,0,9032,1
38.102499,1,9030,13.3800727,Europe/Rome,,,,SAN GIOVANNI DEI LEBBROSI,0,9030,1
38.0988463,1,9031,13.3959766,Europe/Rome,,,,SPERONE,0,9031,1
38.1069615,1,9036,13.373004,Europe/Rome,,,,TIRO A SEGNO,0,9036,1
38.0959051,1,9037,13.4033275,Europe/Rome,,,,XXVII MAGGIO,0,9037,1
38.1101529,1,9034,13.36804385,Europe/Rome,,,,STAZIONE CENTRALE,0,9034,1
38.1069251,1,9035,13.3729936,Europe/Rome,,,,TIRO A SEGNO,0,9035,1
38.096108,1,9038,13.4028383,Europe/Rome,,,,XXVII MAGGIO,0,9038,1
38.1265278,1,9039,13.2990267,Europe/Rome,,,,MODICA,0,9039,1
38.124629654,1,1739,13.311530598,Europe/Rome,,,,ROCCAZZO - DOGALI,0,1739,1
38.15390167,1,1731,13.33375667,Europe/Rome,,,,RESUTTANA - VILLA SOFIA,0,1731,1
38.15420361,1,1730,13.33337471,Europe/Rome,,,,RESUTTANA - VILLA SOFIA,0,1730,1
38.12233286,1,1733,13.30857396,Europe/Rome,,,,ROCCAZZO - AMAT,0,1733,1
38.14319113,1,1732,13.34662554,Europe/Rome,,,,ROCCAFORTE - DON BOSCO,0,1732,1
38.120999484,1,1735,13.306803168,Europe/Rome,,,,ROCCAZZO - CASA DEL SOLE,0,1735,1
38.12236424,1,1734,13.30875109,Europe/Rome,,,,ROCCAZZO - AMAT,0,1734,1
38.12061268,1,1736,13.30642862,Europe/Rome,,,,ROCCAZZO - CASA DEL SOLE,0,1736,1
38.20307,1,732,13.31686167,Europe/Rome,,,,DIOMEDE - MERCURIO,0,732,1
38.08784667,1,753,13.345825,Europe/Rome,,,,EMILY BALCH - VILLAGRAZIA,0,753,1
38.08756333,1,752,13.34520833,Europe/Rome,,,,EMILY BALCH - VILLAGRAZIA,0,752,1
38.08880973,1,756,13.3510682,Europe/Rome,,,,EMILY BALCH 3,0,756,1
38.08894167,1,754,13.34872667,Europe/Rome,,,,EMILY BALCH 1,0,754,1
38.11942195,1,1595,13.3710815,Europe/Rome,,,,PORTA FELICE,0,1595,1
38.11149,1,1591,13.37850833,Europe/Rome,,,,PONTE DI MARE - S. ERASMO,0,1591,1
38.11168779,1,1590,13.37839723,Europe/Rome,,,,PONTE DI MARE - S. ERASMO,0,1590,1
38.10310856,1,1593,13.36957142,Europe/Rome,,,,PONTE ORETO,0,1593,1
38.130655,1,1025,13.35178333,Europe/Rome,,,,LIBERTA' - CROCI,0,1025,1
38.13569833,1,1024,13.34846833,Europe/Rome,,,,LIBERTA' - ARIMONDI,0,1024,1
38.13893,1,1027,13.34638667,Europe/Rome,,,,LIBERTA' - D'ANNUNZIO,0,1027,1
38.12960699,1,1026,13.35241199,Europe/Rome,,,,LIBERTA' - CROCI,0,1026,1
38.11288167,1,1021,13.33314,Europe/Rome,,,,LIBERO GRASSI - SICCHERIA,0,1021,1
38.11260791,1,1020,13.33350509,Europe/Rome,,,,LIBERO GRASSI - LA TORRE,0,1020,1
38.13617833,1,1023,13.348245,Europe/Rome,,,,LIBERTA' - ARIMONDI,0,1023,1
38.12854,1,1022,13.35313833,Europe/Rome,,,,LIBERTA' - ARCHIMEDE,0,1022,1
38.14326333,1,1029,13.34355667,Europe/Rome,,,,LIBERTA' - DON BOSCO,0,1029,1
38.143165,1,1028,13.34369,Europe/Rome,,,,LIBERTA' - DON BOSCO,0,1028,1
38.17974217,1,500,13.31535403,Europe/Rome,,,,COPPI - S. NICOLA,0,500,1
38.1503101425,1,605,13.3360310125,Europe/Rome,,,,DE GASPERI - AUSONIA,0,605,1
38.15019008,1,604,13.33553821,Europe/Rome,,,,DE GASPERI - AUSONIA,0,604,1
38.14940121,1,607,13.33359897,Europe/Rome,,,,DE GASPERI - STRASBURGO,0,607,1
38.14842167,1,606,13.33115167,Europe/Rome,,,,DE GASPERI - NEBRODI,0,606,1
38.08531164,1,1209,13.35312143,Europe/Rome,,,,MONETA - ALOI,0,1209,1
38.14336068,1,600,13.34518276,Europe/Rome,,,,D'AZEGLIO - LA MARMORA,0,600,1
38.10027595,1,631,13.38431708,Europe/Rome,,,,DEI MILLE - D'AOSTA,0,631,1
38.204915,1,1207,13.32290333,Europe/Rome,,,,MONDELLO - STESICORO,0,1207,1
38.07956909,1,1201,13.3122392,Europe/Rome,,,,MOLARA - MIMOSA,0,1201,1
38.07972216,1,1200,13.31225395,Europe/Rome,,,,MOLARA - MIMOSA,0,1200,1
38.08087809,1,1203,13.31113413,Europe/Rome,,,,MOLARA - PIAZZA MOLARA,0,1203,1
38.08093087,1,1202,13.31120118,Europe/Rome,,,,MOLARA - PIAZZA MOLARA,0,1202,1
38.1539557,1,1211,13.32428239,Europe/Rome,,,,MONTE SAN CALOGERO,0,1211,1
38.09311123,1,634,13.40768789,Europe/Rome,,,,DEI MILLE - FONDO VITALE,0,634,1
38.13658716,1,1217,13.35845232,Europe/Rome,,,,MONTEPELLEGRINO - MERCATO,0,1217,1
38.14088231,1,1214,13.35777909,Europe/Rome,,,,MONTEPELLEGRINO - AMMIRAGLIO RIZZO,0,1214,1
38.11942202,1,1447,13.32796398,Europe/Rome,,,,PERPIGNANO - REGIONE SICILIANA,0,1447,1
38.11938033,1,1446,13.33696426,Europe/Rome,,,,PERPIGNANO - POLITO,0,1446,1
38.10047954,1,1113,13.35051582,Europe/Rome,,,,MARINI,0,1113,1
38.19198495,1,1112,13.33248585,Europe/Rome,,,,MARGHERITA DI SAVOIA - VENERE,0,1112,1
38.11997936,1,1443,13.32340167,Europe/Rome,,,,PERPIGNANO - JATO,0,1443,1
38.11967358,1,1442,13.3258818,Europe/Rome,,,,PERPIGNANO - FIUMEFREDDO,0,1442,1
38.1079101,1,1117,13.36373895,Europe/Rome,,,,MARINUZZI - PISACANE,0,1117,1
38.11904212,1,1440,13.33491728,Europe/Rome,,,,PERPIGNANO - D'AQUINO,0,1440,1
38.17437667,1,1119,13.33210167,Europe/Rome,,,,MATER DOLOROSA - BARBADORO,0,1119,1
38.17457833,1,1118,13.332685,Europe/Rome,,,,MATER DOLOROSA - BARBADORO,0,1118,1
38.19845643,1,1449,13.25067982,Europe/Rome,,,,PIANO LEVANTE,0,1449,1
38.11899679,1,1448,13.33212195,Europe/Rome,,,,PERPIGNANO - RUGGERONE DA PALERMO,0,1448,1
38.08513008,1,1357,13.36199015,Europe/Rome,,,,PAPA GIOVANNI XXIII - BASSOTTO,0,1357,1
38.12652125,1,1356,13.29264969,Europe/Rome,,,,PANTALICA - ZANCLE,0,1356,1
38.12665628,1,1355,13.29276234,Europe/Rome,,,,PANTALICA - ZANCLE,0,1355,1
38.09470776,1,488,13.38448316,Europe/Rome,,,,CONTE FEDERICO - TORTORICI,0,488,1
38.094585,1,487,13.38458167,Europe/Rome,,,,CONTE FEDERICO - TORTORICI,0,487,1
38.09254302,1,484,13.3894667,Europe/Rome,,,,CONTE FEDERICO - GRIGOLI,0,484,1
38.09316258,1,482,13.38672817,Europe/Rome,,,,CONTE FEDERICO - GIAFAR,0,482,1
38.09297667,1,481,13.38668833,Europe/Rome,,,,CONTE FEDERICO - GIAFAR,0,481,1
38.08849624,1,480,13.39622319,Europe/Rome,,,,CONTE FEDERICO - GALEANO,0,480,1
38.1377642,1,199,13.31053922,Europe/Rome,,,,BESIO 1,0,199,1
38.13679532,1,198,13.31253015,Europe/Rome,,,,BESIO - BARISANO DA TRANI,0,198,1
38.13664475,1,194,13.32231594,Europe/Rome,,,,BERNINI 2,0,194,1
38.13809833,1,196,13.308315,Europe/Rome,,,,BERRETTARO,0,196,1
38.13664648,1,193,13.32237948,Europe/Rome,,,,BERNINI 1,0,193,1
38.129834685,1,1456,13.29593874,Europe/Rome,,,,PIAZZA ARMERINA - ISPICA,0,1456,1
38.12264833,1,1453,13.35121833,Europe/Rome,,,,PIAZZA AMENDOLA,0,1453,1
38.1972128,1,902,13.31421266,Europe/Rome,,,,IANDOLINO - CATALANO,0,902,1
38.19630657,1,903,13.31160237,Europe/Rome,,,,IANDOLINO - PARTANNA MONDELLO,0,903,1
38.12672489,1,900,13.33141964,Europe/Rome,,,,HOLM - SCOBAR,0,900,1
38.19629,1,901,13.31182,Europe/Rome,,,,IANDOLINO,0,901,1
38.14538289,1,906,13.34792733,Europe/Rome,,,,IMPERATORE FEDERICO - METRO',0,906,1
38.1455664,1,907,13.34819287,Europe/Rome,,,,IMPERATORE FEDERICO - METRO',0,907,1
38.14696833,1,904,13.35266,Europe/Rome,,,,IMPERATORE FEDERICO - FIERA,0,904,1
38.147085,1,905,13.35293667,Europe/Rome,,,,IMPERATORE FEDERICO - FIERA,0,905,1
38.14584063,1,908,13.34926039,Europe/Rome,,,,IMPERATORE FEDERICO - MINZONI,0,908,1
38.14633001,1,909,13.35077584,Europe/Rome,,,,IMPERATORE FEDERICO,0,909,1
38.092955,1,1847,13.30551333,Europe/Rome,,,,S.P. 69 ROCCA - MONREALE,0,1847,1
38.09322667,1,1846,13.30562833,Europe/Rome,,,,S.P. 69 ROCCA - MONREALE,0,1846,1
38.081635,1,2165,13.33552667,Europe/Rome,,,,VILLAGRAZIA 10,0,2165,1
38.09287667,1,2164,13.35876667,Europe/Rome,,,,VILLAGRAZIA 1,0,2164,1
38.08175532,1,2167,13.33553821,Europe/Rome,,,,VILLAGRAZIA 3,0,2167,1
38.09093333,1,2166,13.354835,Europe/Rome,,,,VILLAGRAZIA 2,0,2166,1
38.07640333,1,2161,13.33218833,Europe/Rome,,,,VILLAGRAZIA - VILLA FERNANDEZ,0,2161,1
38.07657,1,2160,13.33213667,Europe/Rome,,,,VILLAGRAZIA - VILLA FERNANDEZ,0,2160,1
38.07811833,1,2163,13.33339167,Europe/Rome,,,,VILLAGRAZIA - ZUPPETTA,0,2163,1
38.07820306,1,2162,13.3333844,Europe/Rome,,,,VILLAGRAZIA - ZUPPETTA,0,2162,1
38.12401355,1,1908,13.30294937,Europe/Rome,,,,SARULLO - PAPALEO,0,1908,1
38.12414223,1,1909,13.30295205,Europe/Rome,,,,SARULLO - PAPALEO,0,1909,1
38.12099031,1,1906,13.30566383,Europe/Rome,,,,SARULLO - CASA DEL SOLE,0,1906,1
38.12115048,1,1907,13.30563024,Europe/Rome,,,,SARULLO - CASA DEL SOLE,0,1907,1
38.16816942,1,1904,13.35103333,Europe/Rome,,,,SANTUARIO,0,1904,1
38.1682116,1,1905,13.35099042,Europe/Rome,,,,SANTUARIO,0,1905,1
38.14,1,1903,13.32799333,Europe/Rome,,,,SANTUARIO DI CRUILLAS,0,1903,1
38.087515,1,856,13.43305333,Europe/Rome,,,,GALLETTI - BONADONNA,0,856,1
38.095805,1,857,13.428985,Europe/Rome,,,,GALLETTI - MESSINA MARINE,0,857,1
38.13063238,1,850,13.33457261,Europe/Rome,,,,GALILEI - GIOTTO,0,850,1
38.13140667,1,851,13.33430833,Europe/Rome,,,,GALILEI - GIOTTO,0,851,1
38.13043333,1,853,13.33492833,Europe/Rome,,,,GALILEI - LEONARDO DA VINCI,0,853,1
38.09609167,1,858,13.42869333,Europe/Rome,,,,GALLETTI - MESSINA MARINE,0,858,1
38.08798833,1,859,13.43288333,Europe/Rome,,,,GALLETTI - TAGLIAVIA,0,859,1
38.17423426,1,6,13.29631486,Europe/Rome,,,,ACC. A29 MONTE - COSTANTINO,0,6,1
38.19451459,1,425,13.3155705,Europe/Rome,,,,CHIRONE - CASTELFORTE,0,425,1
38.0963486,1,9029,13.4061764,Europe/Rome,,,,REBER,0,9029,1
38.096137,1,9028,13.4066897,Europe/Rome,,,,REBER,0,9028,1
38.1101193804,1,,13.3663653477,Europe/Rome,,,,STAZIONE CENTRALE,1,20000,1
38.1008156,1,9025,13.3832792,Europe/Rome,,,,MISSORI,0,9025,1
38.1091089,1,9024,13.3703911,Europe/Rome,,,,INGRASSIA,0,9024,1
38.1049173,1,9027,13.3762632,Europe/Rome,,,,PONTE AMMIRAGLIO,0,9027,1
38.100928,1,9026,13.384063,Europe/Rome,,,,MISSORI,0,9026,1
38.0888489,1,9021,13.4087835,Europe/Rome,,,,ROCCELLA,0,9021,1
38.0954479,1,9020,13.4087839,Europe/Rome,,,,DI VITTORIO,0,9020,1
38.108596,1,9023,13.3708086,Europe/Rome,,,,INGRASSIA,0,9023,1
38.0888612,1,9022,13.4087516,Europe/Rome,,,,ROCCELLA,0,9022,1
38.1657052,1,740,13.33058314,Europe/Rome,,,,DUCA DEGLI ABRUZZI - PALAZZINA CINESE,0,740,1
38.17134833,1,741,13.327595,Europe/Rome,,,,DUCA DEGLI ABRUZZI - PALLAVICINO,0,741,1
38.17169833,1,742,13.32739833,Europe/Rome,,,,DUCA DEGLI ABRUZZI - PALLAVICINO,0,742,1
38.13514897,1,743,13.35546906,Europe/Rome,,,,DUCA DELLA VERDURA - GIACHERY,0,743,1
38.1342449057,1,744,13.3516065129,Europe/Rome,,,,DUCA DELLA VERDURA - LIBERTA',0,744,1
38.13502494,1,745,13.3547093,Europe/Rome,,,,DUCA DELLA VERDURA - TOSELLI,0,745,1
38.13476563,1,746,13.3539324,Europe/Rome,,,,DUCA DELLA VERDURA - TOSELLI,0,746,1
38.13619667,1,1050,13.33608833,Europe/Rome,,,,LISZT,0,1050,1
38.08211,1,1051,13.43383833,Europe/Rome,,,,M. MONTAGNE - FIGURELLA,0,1051,1
38.083324,1,1052,13.42816732,Europe/Rome,,,,M. MONTAGNE 1,0,1052,1
38.08275667,1,1053,13.430815,Europe/Rome,,,,M. MONTAGNE 2,0,1053,1
38.08272222,1,1054,13.43122081,Europe/Rome,,,,M. MONTAGNE 2,0,1054,1
38.08339855,1,1055,13.428085,Europe/Rome,,,,M. MONTAGNE 1,0,1055,1
38.09952183,1,1058,13.30994748,Europe/Rome,,,,MADDALENA - DI BELLA,0,1058,1
38.09652414,1,1059,13.3097823,Europe/Rome,,,,MADDALENA - DI BELLA,0,1059,1
38.154975,1,1697,13.318265,Europe/Rome,,,,REGIONE SICILIANA - TRABUCCO 3,0,1697,1
38.10081877,1,1694,13.33147568,Europe/Rome,,,,REGIONE SICILIANA - SS. MEDIATRICE,0,1694,1
38.14415287,1,1692,13.33076443,Europe/Rome,,,,REGIONE SICILIANA - SARDEGNA,0,1692,1
38.09054878,1,1690,13.38301083,Europe/Rome,,,,REGIONE SICILIANA - SAN CIRO,0,1690,1
38.13678445,1,1691,13.33050956,Europe/Rome,,,,REGIONE SICILIANA - SANTUARIO DI CRUILLAS,0,1691,1
38.08941922,1,1698,13.3616588,Europe/Rome,,,,REGIONE SICILIANA - TROINA,0,1698,1
38.08934593,1,1699,13.36168438,Europe/Rome,,,,REGIONE SICILIANA - TROINA,0,1699,1
38.08494122,1,1279,13.32642305,Europe/Rome,,,,OLIO DI LINO 14,0,1279,1
38.091499,1,618,13.41267948,Europe/Rome,,,,DEI MILLE - BANDITA,0,618,1
38.10570333,1,619,13.37502333,Europe/Rome,,,,DEI MILLE - BENNICI,0,619,1
38.18887701,1,1270,13.30490492,Europe/Rome,,,,OLIMPO,0,1270,1
38.1154178,1,613,13.33321407,Europe/Rome,,,,DEGLI EMIRI - NINA SICILIANA,0,613,1
38.07859468,1,1272,13.31358297,Europe/Rome,,,,OLIO DI LINO - MOLARA,0,1272,1
38.07849113,1,1273,13.31367293,Europe/Rome,,,,OLIO DI LINO - MOLARA,0,1273,1
38.11034,1,616,13.369415,Europe/Rome,,,,DEI MILLE - BALSAMO,0,616,1
38.09142811,1,617,13.41265709,Europe/Rome,,,,DEI MILLE - BANDITA,0,617,1
38.10068149,1,614,13.3272057,Europe/Rome,,,,DEI FIORI - PAULSEN,0,614,1
38.126275,1,1472,13.35756333,,,80000,,PIAZZA DON STURZO,0,1472,1
38.12898667,1,1473,13.3285,Europe/Rome,,,,PIAZZA EISTEIN,0,1473,1
38.13137047,1,1470,13.35999876,Europe/Rome,,,,PIAZZA DELLA PACE,0,1470,1
38.19815167,1,1471,13.30957,Europe/Rome,,,,PIAZZA DELLA SERENITA',0,1471,1
38.14518333,1,1477,13.31535,Europe/Rome,,,,PIAZZA LAMPADA DELLA FRATERNITA',0,1477,1
38.10076667,1,1474,13.33847833,Europe/Rome,,,,PIAZZA G.LE TURBA,0,1474,1
38.18840221,1,1478,13.2893157,Europe/Rome,,,,PIAZZA MANDORLE,0,1478,1
38.09434685,1,1304,13.37521049,Europe/Rome,,,,ORETO - ORSI,0,1304,1
38.0924178,1,1305,13.37648763,Europe/Rome,,,,ORETO - REGIONE SICILIANA,0,1305,1
38.10915528,1,1307,13.36561248,Europe/Rome,,,,ORETO - S. ANTONINO,0,1307,1
38.10615167,1,1300,13.36768667,Europe/Rome,,,,ORETO - MENDOLA,0,1300,1
38.09687137,1,1301,13.373584,Europe/Rome,,,,ORETO - ORSA MINORE,0,1301,1
38.09682177,1,1302,13.37373018,Europe/Rome,,,,ORETO - ORSA MINORE,0,1302,1
38.09759,1,1303,13.37302,Europe/Rome,,,,ORETO - ORSA MINORE - O.S.6,0,1303,1
38.09402805,1,1308,13.37552324,Europe/Rome,,,,ORETO - SIRILLO,0,1308,1
38.09382,1,1309,13.36336,Europe/Rome,,,,ORSA MAGGIORE - CAPRICORNO,0,1309,1
38.11653308,1,498,13.34602833,Europe/Rome,,,,CONTESSA GIUDITTA,0,498,1
38.18052193,1,499,13.31773565,Europe/Rome,,,,COPPI,0,499,1
38.09393623,1,497,13.38549972,Europe/Rome,,,,CONTE FEDERICO - CHIAZZESE,0,497,1
38.1317896525,1,,13.3309374237,Europe/Rome,,,,PIAZZALE JOHN LENNON,1,50000,1
38.13126677,1,25,13.30210297,Europe/Rome,,,,ACIREALE - BISACQUINO,0,25,1
38.13107667,1,26,13.30176333,Europe/Rome,,,,ACIREALE - BISACQUINO,0,26,1
38.13023656,1,27,13.29970198,Europe/Rome,,,,ACIREALE - PIAZZA S. CRISTINA,0,27,1
38.18349448,1,20,13.29079813,Europe/Rome,,,,ACC. A29 VALLE 4,0,20,1
38.09042067,1,21,13.38193992,Europe/Rome,,,,ACC. MONTE A19 - BRASCA,0,21,1
38.08865457,1,22,13.38711575,Europe/Rome,,,,ACC. MONTE A19 - MAREDOLCE,0,22,1
38.08703959,1,23,13.39603543,Europe/Rome,,,,ACC. MONTE A19 - GALEANO,0,23,1
38.12194457,1,28,13.29745958,Europe/Rome,,,,AI VILLINI A S. ISIDORO - DE FRANCISCO,0,28,1
38.12016768,1,29,13.29864971,Europe/Rome,,,,AI VILLINI A S. ISIDORO - FALCONARA,0,29,1
38.1700749,1,7,13.3000941,Europe/Rome,,,,ACC. A29 MONTE - MONTE ROSA,0,7,1
38.17557089,1,2288,13.31053683,Europe/Rome,,,,LANZA DI SCALEA - BESTA,0,2288,1
38.11458279,1,2289,13.35495966,Europe/Rome,,,,BONELLO - CATTEDRALE,0,2289,1
38.11436333,1,976,13.33795167,Europe/Rome,,,,L'EMIRO - ARISTIPPO,0,976,1
38.13690561,1,2280,13.30686645,Europe/Rome,,,,ZUMBO - BERRETTARO,0,2280,1
38.18592961,1,2281,13.28775325,Europe/Rome,,,,REGIONE SICILIANA N.O.MONTE - SOCRATE,0,2281,1
38.12216917,1,2282,13.36158508,Europe/Rome,,,,CAVOUR - PREFETTURA,0,2282,1
38.11224832,1,2283,13.35056265,Europe/Rome,,,,IMERA - COLONNA ROTTA,0,2283,1
38.10313035,1,2284,13.38503855,Europe/Rome,,,,ANITA GARIBALDI,0,2284,1
38.09926154,1,2285,13.32525874,Europe/Rome,,,,PAULSEN,0,2285,1
38.07474468,1,2286,13.30310962,Europe/Rome,,,,AQUINO - CHIESA,0,2286,1
38.13026135,1,2287,13.29996687,Europe/Rome,,,,ACIREALE - PIAZZA S.CRISTINA,0,2287,1
38.12165341,1,590,13.34184676,Europe/Rome,,,,DANTE - VILLA MALFITANO,0,590,1
38.10803884,1,1876,13.36099505,Europe/Rome,,,,SALAMONE MARINO,0,1876,1
38.19747324,1,1874,13.31962724,Europe/Rome,,,,SALINE,0,1874,1
38.19745902,1,1875,13.31952484,Europe/Rome,,,,SALINE,0,1875,1
38.12868708,1,1873,13.34627107,Europe/Rome,,,,SALINAS - VILLA TRABIA,0,1873,1
38.18820404,1,1870,13.29161167,Europe/Rome,,,,SALGARI - PAPINI,0,1870,1
38.11432678,1,977,13.3380045,Europe/Rome,,,,L'EMIRO - CASTELLUCCIO,0,977,1
38.10740833,1,182,13.35439,Europe/Rome,,,,BASILE - RE RUGGERO,0,182,1
38.1405535,1,971,13.33311036,Europe/Rome,,,,LAZIO - MUNICIPIO,0,971,1
38.14036263,1,970,13.33274188,Europe/Rome,,,,LAZIO - MUNICIPIO,0,970,1
38.11472457,1,979,13.33985925,Europe/Rome,,,,L'EMIRO - EDRISI,0,979,1
38.11462333,1,978,13.33955333,Europe/Rome,,,,L'EMIRO - DI SVEVIA,0,978,1
38.13940351,1,2118,13.34914505,Europe/Rome,,,,VILLABIANCA - AUTONOMIA SICILIANA,0,2118,1
38.13937334,1,2119,13.34904218,Europe/Rome,,,,VILLABIANCA - AUTONOMIA SICILIANA,0,2119,1
38.09672333,1,181,13.34470167,Europe/Rome,,,,BASILE - RAITI,0,181,1
38.15147667,1,186,13.33063333,Europe/Rome,,,,BELGIO,0,186,1
38.15124333,1,187,13.33051667,Europe/Rome,,,,BELGIO,0,187,1
38.10568667,1,184,13.35176,Europe/Rome,,,,BASILE - UNIVERSITA' SEGRETERIE,0,184,1
38.10652833,1,185,13.35258667,Europe/Rome,,,,BASILE - UNIVERSITA' SEGRETERIE,0,185,1
38.118545,1,2110,13.34602,Europe/Rome,,,,VENEZIANO - FINOCCHIARO APRILE,0,2110,1
38.12112091,1,2111,13.345076,Europe/Rome,,,,VENEZIANO - VILLA FLORIO,0,2111,1
38.10873736,1,188,13.35560871,Europe/Rome,,,,BENEDETTINI,0,188,1
38.16460765,1,2113,13.36933672,Europe/Rome,,,,VERGINE MARIA,0,2113,1
38.16344333,1,2114,13.32011333,Europe/Rome,,,,VILLA ADRIANA,0,2114,1
38.15430167,1,2115,13.33771667,Europe/Rome,,,,VILLA SOFIA - CROCE ROSSA,0,2115,1
38.13630341,1,2116,13.35116878,Europe/Rome,,,,VILLABIANCA - ARIMONDI,0,2116,1
38.13628386,1,2117,13.35111302,Europe/Rome,,,,VILLABIANCA - ARIMONDI,0,2117,1
38.12463789,1,1911,13.33070094,Europe/Rome,,,,SAURO - MONTUORO,0,1911,1
38.12342271,1,1910,13.33185688,Europe/Rome,,,,SAURO - GUALTIERO,0,1910,1
38.12293317,1,1913,13.33221495,Europe/Rome,,,,SAURO - NOCE,0,1913,1
38.12464652,1,1912,13.33213851,Europe/Rome,,,,SAURO - MONTUORO,0,1912,1
38.12124167,1,1914,13.32091375,Europe/Rome,,,,SAVONAROLA - PERPIGNANO,0,1914,1
38.14272392,1,869,13.35713267,Europe/Rome,,,,GENERALE CASCINO - FIERA DEL MEDITERRANEO,0,869,1
38.20867364,1,868,13.32736015,Europe/Rome,,,,GALLO,0,868,1
38.091995,1,861,13.43131167,Europe/Rome,,,,GALLETTI - ZITA,0,861,1
38.08856167,1,860,13.432815,Europe/Rome,,,,GALLETTI - TAGLIAVIA,0,860,1
38.09103167,1,863,13.432045,Europe/Rome,,,,GALLETTI 1,0,863,1
38.09277,1,862,13.43080333,Europe/Rome,,,,GALLETTI - ZITA,0,862,1
38.09428167,1,865,13.43004833,Europe/Rome,,,,GALLETTI 2,0,865,1
38.09443333,1,864,13.42997833,Europe/Rome,,,,GALLETTI 2,0,864,1
38.09088167,1,867,13.43207333,Europe/Rome,,,,GALLETTI 1,0,867,1
38.12836322,1,2024,13.29335913,Europe/Rome,,,,TINDARI - PANTALICA,0,2024,1
38.12870301,1,2025,13.29569349,Europe/Rome,,,,TINDARI 1,0,2025,1
38.12858437,1,2026,13.29535198,Europe/Rome,,,,TINDARI 2,0,2026,1
38.13521133,1,2020,13.32285228,Europe/Rome,,,,TIEPOLO,0,2020,1
38.13499675,1,2021,13.32235422,Europe/Rome,,,,TIEPOLO - UDITORE,0,2021,1
38.12844445,1,2022,13.29505965,Europe/Rome,,,,TINDARI - CEFALU',0,2022,1
38.12830836,1,2023,13.2932961,Europe/Rome,,,,TINDARI - PANTALICA,0,2023,1
38.11164374,1,2028,13.37677391,Europe/Rome,,,,TIRO A SEGNO,0,2028,1
38.20654559,1,2029,13.31714182,Europe/Rome,,,,TOLOMEA,0,2029,1
38.09809767,1,880,13.39117073,Europe/Rome,,,,GIAFAR - TORRELUNGA,0,880,1
38.13108167,1,887,13.33172,Europe/Rome,,,,GIOTTO - REGIONE SICILIANA,0,887,1
38.13083493,1,886,13.33269775,Europe/Rome,,,,GIOTTO - GALILEI,0,886,1
38.12028289,1,889,13.35064374,Europe/Rome,,,,GOETHE,0,889,1
38.1311417,1,9058,13.3046183,Europe/Rome,,,,MICHELANGELO,0,9058,1
38.1313226,1,9059,13.3051329,Europe/Rome,,,,MICHELANGELO,0,9059,1
38.1310456,1,9050,13.3391323,Europe/Rome,,,,RESPIGHI - PIAZZA ZIINO,0,9050,1
38.1268672,1,9051,13.3186533,Europe/Rome,,,,RUGGERI,0,9051,1
38.13440795,1,9052,13.30955445,Europe/Rome,,,,CEP,0,9052,1
38.1266429,1,9054,13.3103272,Europe/Rome,,,,CAMPO RIBOLLA,0,9054,1
38.1266623,1,9055,13.3097626,Europe/Rome,,,,CAMPO RIBOLLA,0,9055,1
38.1267337,1,9056,13.3139724,Europe/Rome,,,,CASALINI,0,9056,1
38.126748,1,9057,13.3131696,Europe/Rome,,,,CASALINI,0,9057,1
38.08008667,1,775,13.4363,Europe/Rome,,,,EUROPA - PIEMONTE,0,775,1
38.07536,1,774,13.44855,Europe/Rome,,,,EUROPA - PIAVE,0,774,1
38.07619833,1,777,13.439925,Europe/Rome,,,,EUROPA - S. GIUSEPPE,0,777,1
38.07848,1,776,13.437715,Europe/Rome,,,,EUROPA - PUGLISI,0,776,1
38.10812959,1,771,13.36571306,Europe/Rome,,,,ERRANTE - PEREZ,0,771,1
38.106975,1,770,13.3631,Europe/Rome,,,,ERRANTE - CORAZZA,0,770,1
38.07551,1,773,13.44410333,Europe/Rome,,,,EUROPA - PELORITANI,0,773,1
38.07562,1,772,13.44195333,Europe/Rome,,,,EUROPA - DELLA RINASCITA,0,772,1
38.1184903,1,779,13.29761311,Europe/Rome,,,,FALCONARA - AI VILLINI A S. ISIDORO,0,779,1
38.07540833,1,778,13.44715667,Europe/Rome,,,,EUROPA - TAORMINA,0,778,1
38.08824502,1,77,13.32948178,Europe/Rome,,,,ALTOFONTE - SAMBUCIA,0,77,1
38.0900489,1,76,13.33073974,Europe/Rome,,,,ALTOFONTE - SAMBUCIA,0,76,1
38.09511167,1,75,13.33602333,Europe/Rome,,,,ALTOFONTE - REGIONE SICILIANA,0,75,1
38.09434311,1,74,13.33555578,Europe/Rome,,,,ALTOFONTE - REGIONE SICILIANA,0,74,1
38.09116456,1,73,13.33249122,Europe/Rome,,,,ALTOFONTE - PIAZZA PAGLIARELLI,0,73,1
38.091289,1,72,13.33253622,Europe/Rome,,,,ALTOFONTE - PIAZZA PAGLIARELLI,0,72,1
38.08683167,1,71,13.32824833,Europe/Rome,,,,ALTOFONTE - OLIO DI LINO,0,71,1
38.08689921,1,70,13.32821846,Europe/Rome,,,,ALTOFONTE - OLIO DI LINO,0,70,1
38.09278683,1,79,13.33444118,Europe/Rome,,,,ALTOFONTE - VILLANI,0,79,1
38.09245647,1,78,13.33390742,Europe/Rome,,,,ALTOFONTE - VILLANI,0,78,1
38.11244119,1,1043,13.37015346,Europe/Rome,,,,LINCOLN - ARCHIRAFI,0,1043,1
38.11203178,1,1042,13.36950704,Europe/Rome,,,,LINCOLN - ARCHIRAFI,0,1042,1
38.13733667,1,1041,13.34741667,Europe/Rome,,,,LIBERTA' - VILLA PAINO,0,1041,1
38.13758186,1,1040,13.34727287,Europe/Rome,,,,LIBERTA' - VILLA PAINO,0,1040,1
38.1144133,1,1047,13.37461665,Europe/Rome,,,,LINCOLN - VILLA GIULIA,0,1047,1
38.11307008,1,1046,13.37152273,Europe/Rome,,,,LINCOLN - ORTO BOTANICO,0,1046,1
38.11364726,1,1045,13.37292552,Europe/Rome,,,,LINCOLN - ORTO BOTANICO,0,1045,1
38.11131003,1,1044,13.36776093,Europe/Rome,,,,LINCOLN - DEI MILLE,0,1044,1
38.13699032,1,1049,13.33590117,Europe/Rome,,,,LISZT,0,1049,1
38.11480476,1,1048,13.37526172,Europe/Rome,,,,LINCOLN - VILLA GIULIA,0,1048,1
38.105929,1,1681,13.32994703,Europe/Rome,,,,REGIONE SICILIANA - POLLACI,0,1681,1
38.09880366,1,1680,13.33346016,Europe/Rome,,,,REGIONE SICILIANA - PLATANIA,0,1680,1
38.09068722,1,1683,13.34296826,Europe/Rome,,,,REGIONE SICILIANA - PONTE CORLEONE,0,1683,1
38.09101833,1,1682,13.34319167,Europe/Rome,,,,REGIONE SICILIANA - PONTE CORLEONE,0,1682,1
38.13535333,1,1685,13.330925,Europe/Rome,,,,REGIONE SICILIANA - PRINCIPE DI PATERNO',0,1685,1
38.11279167,1,1684,13.32983167,Europe/Rome,,,,REGIONE SICILIANA - PORTELLO,0,1684,1
38.09000478,1,1686,13.36326203,Europe/Rome,,,,REGIONE SICILIANA - S. FILIPPO,0,1686,1
38.09011655,1,1689,13.37337573,Europe/Rome,,,,REGIONE SICILIANA - S. M. DI GESU',0,1689,1
38.18911295,1,1269,13.30139959,Europe/Rome,,,,OLIMPO - VILLA SCALEA,0,1269,1
38.18889599,1,1268,13.30238901,Europe/Rome,,,,OLIMPO - VILLA SCALEA,0,1268,1
38.18886408,1,1263,13.30759238,Europe/Rome,,,,OLIMPO - CHIRONE,0,1263,1
38.18903255,1,1262,13.32019866,Europe/Rome,,,,OLIMPO - CASTELFORTE,0,1262,1
38.18889025,1,1261,13.32078338,Europe/Rome,,,,OLIMPO - CASTELFORTE,0,1261,1
38.18884947,1,1260,13.31199148,Europe/Rome,,,,OLIMPO - ASPASIA,0,1260,1
38.18906206,1,1267,13.31676006,Europe/Rome,,,,OLIMPO - PALASPORT,0,1267,1
38.09451645,1,662,13.40390891,Europe/Rome,,,,DEI MILLE - XXVII MAGGIO,0,662,1
38.18911466,1,1265,13.30427581,Europe/Rome,,,,OLIMPO - EURIPIDE,0,1265,1
38.09833545,1,660,13.39292891,Europe/Rome,,,,DEI MILLE - VASSALLO,0,660,1
38.13192781,1,1469,13.3600992,Europe/Rome,,,,PIAZZA DELLA PACE,0,1469,1
38.165575,1,1465,13.367525,Europe/Rome,,,,PIAZZA BORDONARO,0,1465,1
38.13249812,1,1464,13.34256595,Europe/Rome,,,,PIAZZA BOIARDO,0,1464,1
38.12009403,1,1467,13.34025621,Europe/Rome,,,,PIAZZA CAMPOREALE,0,1467,1
38.16543,1,1466,13.36839,Europe/Rome,,,,PIAZZA BORDONARO,0,1466,1
38.11424553,1,1462,13.29616338,Europe/Rome,,,,PIAZZA BAIDA,0,1462,1
38.09555738,1,1317,13.36927503,Europe/Rome,,,,ORSA MINORE - CHIAVELLI,0,1317,1
38.09483667,1,1316,13.36798667,Europe/Rome,,,,ORSA MINORE - CHIAVELLI,0,1316,1
38.09072126,1,1314,13.36553201,Europe/Rome,,,,ORSA MINORE - ALBIRI,0,1314,1
38.09379691,1,1312,13.36486012,Europe/Rome,,,,ORSA MAGGIORE - ORSA MINORE,0,1312,1
38.09390167,1,1311,13.36517,Europe/Rome,,,,ORSA MAGGIORE - ORSA MINORE,0,1311,1
38.09372408,1,1310,13.36319983,Europe/Rome,,,,ORSA MAGGIORE - CAPRICORNO,0,1310,1
38.09689045,1,1319,13.37245113,Europe/Rome,,,,ORSA MINORE - ORETO,0,1319,1
38.09688,1,1318,13.37217833,Europe/Rome,,,,ORSA MINORE - ORETO,0,1318,1
38.19095094,1,529,13.34429026,Europe/Rome,,,,CRISTOFORO COLOMBO - CARONIA ROBERTI,0,529,1
38.13709348,1,319,13.3629638,Europe/Rome,,,,CANTIERI - JUVARA,0,319,1
38.13614729,1,318,13.3595936,Europe/Rome,,,,CANTIERI - GIACHERY,0,318,1
38.12861833,1,313,13.336585,Europe/Rome,,,,CAMPOLO - PACINOTTI,0,313,1
38.14494331,1,312,13.33878864,Europe/Rome,,,,CAMPANIA - PUGLIA,0,312,1
38.14464312,1,311,13.33935638,Europe/Rome,,,,CAMPANIA - BRIGATA VERONA,0,311,1
38.13616628,1,317,13.35933477,Europe/Rome,,,,CANTIERI - GIACHERY,0,317,1
38.13721373,1,316,13.3638221,Europe/Rome,,,,CANTIERI - BARCA,0,316,1
38.11964773,1,315,13.34044397,Europe/Rome,,,,CAMPOREALE - GILI,0,315,1
38.12906265,1,314,13.33734065,Europe/Rome,,,,CAMPOLO - SERRADIFALCO,0,314,1
38.13600333,1,1337,13.30887667,Europe/Rome,,,,PALADINI - BARISANO DA TRANI,0,1337,1
38.08497491,1,446,13.39388162,Europe/Rome,,,,CIACULLI 2,0,446,1
38.09631934,1,630,13.39868703,Europe/Rome,,,,DEI MILLE - CORSELLI,0,630,1
38.15043452,1,2293,13.33567821,Europe/Rome,,,,DE GASPERI - AUSONIA,0,2293,1
38.10323355,1,2292,13.3853306,Europe/Rome,,,,DEI PICCIOTTI,0,2292,1
38.11954673,1,2291,13.35753164,Europe/Rome,,,,DONIZZETTI,0,2291,1
38.11734081,1,2290,13.35738266,Europe/Rome,,,,SPIRITO SANTO,0,2290,1
38.10510833,1,281,13.33528833,Europe/Rome,,,,CALATAFIMI - MARINUZZI,0,281,1
38.145029778,1,1865,13.35525027,Europe/Rome,,,,SADAT - AUTONOMIA SICILIANA,0,1865,1
38.14652167,1,1866,13.35409333,Europe/Rome,,,,SADAT - FIERA,0,1866,1
38.18829469,1,1869,13.2915929,Europe/Rome,,,,SALGARI - JACK LONDON,0,1869,1
38.14103613,1,967,13.33474919,Europe/Rome,,,,LAZIO - DELLE ALPI,0,967,1
38.11677997,1,960,13.34722325,Europe/Rome,,,,LASCARIS - ZISA,0,960,1
38.12272639,1,961,13.35055187,Europe/Rome,,,,LATINI,0,961,1
38.09286833,1,962,13.41029167,Europe/Rome,,,,LAUDICINA - DEI MILLE,0,962,1
38.1414312,1,968,13.33577862,Europe/Rome,,,,LAZIO - DELLE ALPI,0,968,1
38.18985999,1,2108,13.32945764,Europe/Rome,,,,VENERE,0,2108,1
38.19013405,1,2103,13.33151221,Europe/Rome,,,,VENERE - MARGHERITA DI SAVOIA,0,2103,1
38.18919909,1,2102,13.32477853,Europe/Rome,,,,VENERE - CASTELFORTE,0,2102,1
38.18910107,1,2101,13.32483351,Europe/Rome,,,,VENERE - CASTELFORTE,0,2101,1
38.10376333,1,286,13.33190167,Europe/Rome,,,,CALATAFIMI - OSPEDALE MILITARE,0,286,1
38.18975353,1,2107,13.32947642,Europe/Rome,,,,VENERE,0,2107,1
38.18957,1,2106,13.32745,Europe/Rome,,,,VENERE - MARINAI ALLIATA,0,2106,1
38.18950477,1,2105,13.32774371,Europe/Rome,,,,VENERE - MARINAI ALLIATA,0,2105,1
38.19008451,1,2104,13.33197221,Europe/Rome,,,,VENERE - MARGHERITA DI SAVOIA,0,2104,1
38.11056,1,1560,13.33883333,Europe/Rome,,,,PITRE' - PINDEMONTE,0,1560,1
38.18945398,1,1241,13.29425096,Europe/Rome,,,,NICOLETTI - PARTANNA MONDELLO,0,1241,1
38.09594478,1,636,13.40026841,Europe/Rome,,,,DEI MILLE - FORNI,0,636,1
38.15504333,1,1240,13.32004333,Europe/Rome,,,,NENNI - CROCE ROSSA ITALIANA,0,1240,1
38.09222005,1,874,13.3862333,Europe/Rome,,,,GIAFAR - BRASCA,0,874,1
38.09168667,1,875,13.38588,Europe/Rome,,,,GIAFAR - BRASCA,0,875,1
38.13581185,1,873,13.35794538,Europe/Rome,,,,GIACHERY,0,873,1
38.18271779,1,2037,13.29318013,Europe/Rome,,,,TOMMASO NATALE - CROCETTA,0,2037,1
38.18313167,1,2036,13.29303333,Europe/Rome,,,,TOMMASO NATALE - CROCETTA,0,2036,1
38.17577,1,2035,13.29942333,Europe/Rome,,,,TOMMASO NATALE - COSTANTINO,0,2035,1
38.17548854,1,2034,13.2999748,Europe/Rome,,,,TOMMASO NATALE - COSTANTINO,0,2034,1
38.17791333,1,2033,13.29695333,Europe/Rome,,,,TOMMASO NATALE - BETTI,0,2033,1
38.17784598,1,2032,13.29717247,Europe/Rome,,,,TOMMASO NATALE - BETTI,0,2032,1
38.17441367,1,2031,13.30146557,Europe/Rome,,,,TOMMASO NATALE - BESTA,0,2031,1
38.17400354,1,2030,13.30212552,Europe/Rome,,,,TOMMASO NATALE - BESTA,0,2030,1
38.17214252,1,9,13.29822191,Europe/Rome,,,,ACC. A29 MONTE - SCHELLEY,0,9,1
38.17268809,1,2039,13.3035882,Europe/Rome,,,,TOMMASO NATALE - MINUTILLA,0,2039,1
38.17229403,1,2038,13.3039096,Europe/Rome,,,,TOMMASO NATALE - MINUTILLA,0,2038,1
38.09728615,1,891,13.36749941,Europe/Rome,,,,GRECA,0,891,1
38.17901482,1,893,13.31736201,Europe/Rome,,,,GUERRA,0,893,1
38.11592,1,894,13.34350167,Europe/Rome,,,,GUERRAZZI,0,894,1
38.08268849,1,895,13.36093605,Europe/Rome,,,,GUIDO ROSSA,0,895,1
38.1255769,1,898,13.33199912,Europe/Rome,,,,HOLM - GUALTIERO,0,898,1
38.12824189,1,899,13.33078668,Europe/Rome,,,,HOLM - LEONARDO DA VINCI,0,899,1
38.11638667,1,1249,13.33192333,,,40000,,NINA SICILIANA - SCUOLA LA TORRE,0,1249,1
38.1309519,1,9049,13.3389032,Europe/Rome,,,,RESPIGHI - PIAZZA ZIINO,0,9049,1
38.1282084,1,9048,13.3278573,Europe/Rome,,,,PARCO UDITORE,0,9048,1
38.1185821,1,1248,13.33143845,Europe/Rome,,,,NINA SICILIANA - PERPIGNANO,0,1248,1
38.1273873,1,9043,13.3245638,Europe/Rome,,,,BEATO ANGELICO,0,9043,1
38.1272932,1,9042,13.3240508,Europe/Rome,,,,BEATO ANGELICO,0,9042,1
38.104147,1,9041,13.3295279,Europe/Rome,,,,POLLACI - CALATAFIMI,0,9041,1
38.128847,1,9040,13.298916,Europe/Rome,,,,PIAZZA SANTA CRISTINA,0,9040,1
38.1280195,1,9047,13.326958,Europe/Rome,,,,PARCO UDITORE,0,9047,1
38.1326407,1,9046,13.3423402,Europe/Rome,,,,NOTARBARTOLO,0,9046,1
38.13262942,1,9045,13.34228614,Europe/Rome,,,,NOTARBARTOLO,0,9045,1
38.1298664,1,9044,13.3345216,Europe/Rome,,,,GALILEI - PACINOTTI,0,9044,1
38.10240572,1,641,13.38000953,Europe/Rome,,,,DEI MILLE - LETTERIO,0,641,1
38.10100434,1,1965,13.33431707,Europe/Rome,,,,SS. MEDIATRICE - BARBARINO,0,1965,1
38.09300743,1,1788,13.36035669,Europe/Rome,,,,S. FILIPPO - COSTELLAZIONE,0,1788,1
38.09302333,1,1789,13.360755,Europe/Rome,,,,S. FILIPPO - ORSA MAGGIORE,0,1789,1
38.08641154,1,768,13.36081401,Europe/Rome,,,,ERMELLINO - TROINA,0,768,1
38.08637678,1,769,13.36091849,Europe/Rome,,,,ERMELLINO - TROINA,0,769,1
38.109135,1,265,13.34521167,Europe/Rome,,,,CALATAFIMI - ALBERGO DELLE POVERE,0,265,1
38.08718033,1,763,13.36534073,Europe/Rome,,,,ERMELLINO - LEVRIERE,0,763,1
38.08491263,1,760,13.3565104,Europe/Rome,,,,ERMELLINO - ANTILOPE,0,760,1
38.08503933,1,761,13.35708867,Europe/Rome,,,,ERMELLINO - CAMOSCIO,0,761,1
38.12436589,1,1784,13.31831708,Europe/Rome,,,,RUGGERI - DI BLASI,0,1784,1
38.0866974833,1,767,13.3626297933,Europe/Rome,,,,ERMELLINO - PAPA GIOVANNI XXIII,0,767,1
38.12592729,1,1786,13.31826344,Europe/Rome,,,,RUGGERI - LEONARDO DA VINCI,0,1786,1
38.12213172,1,1787,13.35722151,Europe/Rome,,,,RUGGIERO SETTIMO - STABILE,0,1787,1
38.09894333,1,1072,13.35564167,Europe/Rome,,,,MADONIA - SOLI,0,1072,1
38.09902437,1,1073,13.35609734,Europe/Rome,,,,MADONIA - UGHETTI,0,1073,1
38.09831333,1,1070,13.351725,Europe/Rome,,,,MADONIA - ROCCELLA,0,1070,1
38.09845833,1,1071,13.35144167,Europe/Rome,,,,MADONIA - ROCCELLA,0,1071,1
38.1162472233,1,,13.3318827767,Europe/Rome,,,,EMIRI - NINA SICILIANA,1,40000,1
38.12661168,1,1678,13.3292126,Europe/Rome,,,,REGIONE SICILIANA - PIAZZA EISTEIN,0,1678,1
38.10969333,1,1679,13.33024667,Europe/Rome,,,,REGIONE SICILIANA - PITRE',0,1679,1
38.1175386,1,1674,13.32864761,Europe/Rome,,,,REGIONE SICILIANA - PERGUSA,0,1674,1
38.11755766,1,1675,13.32922646,Europe/Rome,,,,REGIONE SICILIANA - PERPIGNANO,0,1675,1
38.11984446,1,1676,13.32846667,Europe/Rome,,,,REGIONE SICILIANA - PERPIGNANO,0,1676,1
38.1274367775,1,1677,13.32989107,Europe/Rome,,,,REGIONE SICILIANA - PIAZZA EISTEIN,0,1677,1
38.098515,1,1670,13.33284042,Europe/Rome,,,,REGIONE SICILIANA - PALMERINO,0,1670,1
38.09084264,1,1672,13.3751893,Europe/Rome,,,,REGIONE SICILIANA - PARATORE,0,1672,1
38.11611667,1,1673,13.32941333,Europe/Rome,,,,"REGIONE SICILIANA - PARCHEGGIO ""DEGLI EMIRI""",0,1673,1
38.1111994,1,1095,13.36434271,Europe/Rome,,,,MAQUEDA - S. ANTONINO,0,1095,1
38.17729416,1,1097,13.31816888,Europe/Rome,,,,MARCHESE PENSABENE,0,1097,1
38.19959167,1,1090,13.27999667,Europe/Rome,,,,MANDERINO - FILISTO,0,1090,1
38.19833944,1,1091,13.27812955,Europe/Rome,,,,MANDERINO - TERENZIO,0,1091,1
38.19834833,1,1092,13.27810833,Europe/Rome,,,,MANDERINO - TERENZIO,0,1092,1
38.11327795,1,1093,13.36297855,Europe/Rome,,,,MAQUEDA - PALAZZO COMITINI,0,1093,1
38.17991761,1,1419,13.31352547,Europe/Rome,,,,PATTI - EINAUDI,0,1419,1
38.09651359,1,1411,13.31856787,Europe/Rome,,,,PARUTA - TERRANOVA,0,1411,1
38.1303554,1,1412,13.35493761,Europe/Rome,,,,PASQUALE CALVI,0,1412,1
38.12332353,1,1416,13.35370883,Europe/Rome,,,,PATERNOSTRO - VILLAFRANCA,0,1416,1
38.09648517,1,1322,13.37104565,Europe/Rome,,,,ORSA MINORE - S. M. DI GESU',0,1322,1
38.09418953,1,1323,13.36711585,Europe/Rome,,,,ORSA MINORE,0,1323,1
38.0926739,1,1320,13.36566344,Europe/Rome,,,,ORSA MINORE - ORSA MAGGIORE,0,1320,1
38.09619487,1,1321,13.37015286,Europe/Rome,,,,ORSA MINORE - S. M. DI GESU',0,1321,1
38.15424,1,1326,13.313155,Europe/Rome,,,,OSPEDALE CERVELLO,0,1326,1
38.10367421,1,1327,13.35529,Europe/Rome,,,,OSPEDALE CIVICO,0,1327,1
38.09413167,1,1324,13.36674833,Europe/Rome,,,,ORSA MINORE,0,1324,1
38.12925253,1,1328,13.33510101,Europe/Rome,,,,PACINOTTI,0,1328,1
38.13247333,1,1256,13.344875,Europe/Rome,,,,NOTARBARTOLO - MORELLO,0,1256,1
38.133185,1,1257,13.34764667,Europe/Rome,,,,NOTARBARTOLO - PETRARCA,0,1257,1
38.12100666,1,1254,13.33555833,Europe/Rome,,,,NOCE - LITTARA,0,1254,1
38.13198267,1,1255,13.34291428,Europe/Rome,,,,NOTARBARTOLO - DI MARIA,0,1255,1
38.13155543,1,1521,13.33095297,,,50000,,PIAZZALE JOHN LENNON 544,0,1521,1
38.20564657,1,1250,13.31833521,Europe/Rome,,,,NISO,0,1250,1
38.13179844,1,1523,13.33065525,,,50000,,PIAZZALE JOHN LENNON MONTE,0,1523,1
38.10333897,1,1528,13.38542014,Europe/Rome,,,,PICCIOTTI - D'AOSTA,0,1528,1
38.1332081,1,1258,13.34755025,Europe/Rome,,,,NOTARBARTOLO - PETRARCA,0,1258,1
38.13229097,1,1259,13.34393654,Europe/Rome,,,,NOTARBARTOLO - SCIUTI,0,1259,1
38.09890887,1,309,13.32016331,Europe/Rome,,,,CALATAFIMI,0,309,1
38.09459482,1,300,13.30927134,Europe/Rome,,,,CALATAFIMI - ROCCA,0,300,1
38.09719797,1,301,13.31591192,Europe/Rome,,,,CALATAFIMI - SCUOLA FELTRI,0,301,1
38.0969843,1,302,13.31514403,Europe/Rome,,,,CALATAFIMI - SCUOLA FELTRI,0,302,1
38.10665667,1,303,13.33908667,Europe/Rome,,,,CALATAFIMI - TRASSELLI,0,303,1
38.10127386,1,304,13.32601117,Europe/Rome,,,,CALATAFIMI - VILLA DELLE ROSE,0,304,1
38.10120468,1,305,13.32556445,Europe/Rome,,,,CALATAFIMI - VILLA DELLE ROSE,0,305,1
38.10620269,1,306,13.33808363,Europe/Rome,,,,CALATAFIMI - ZANCLA,0,306,1
38.105817855,1,307,13.337086195,Europe/Rome,,,,CALATAFIMI - ZANCLA,0,307,1
38.07502962,1,117,13.30966964,Europe/Rome,,,,AQUINO 3 VALLE,0,117,1
38.09032017,1,471,13.39357317,Europe/Rome,,,,CONTE FEDERICO - CACCIATORE,0,471,1
38.08523564,1,1898,13.3447516,Europe/Rome,,,,SAN FRANCESCO DI SALES,0,1898,1
38.09280689,1,1894,13.38335797,Europe/Rome,,,,SAN CIRO - BAGNASCO,0,1894,1
38.09479114,1,1895,13.38335395,Europe/Rome,,,,SAN CIRO - CONTE FEDERICO,0,1895,1
38.09376524,1,1896,13.38323593,Europe/Rome,,,,SAN CIRO - MAREDOLCE,0,1896,1
38.091211,1,1897,13.38428602,Europe/Rome,,,,SAN CIRO - REGIONE SICILIANA,0,1897,1
38.12592307,1,1890,13.34941864,Europe/Rome,,,,SAMMARTINO - SIRACUSA,0,1890,1
38.09193507,1,476,13.39048058,Europe/Rome,,,,CONTE FEDERICO - DI VITA,0,476,1
38.0731483,1,2136,13.32900167,Europe/Rome,,,,VILLAGRAZIA - CATENA,0,2136,1
38.10169567,1,958,13.33929791,Europe/Rome,,,,LARGO TRAINA - CATALANO,0,958,1
38.07453,1,2134,13.33052667,Europe/Rome,,,,VILLAGRAZIA - BELL'ALBA,0,2134,1
38.07455243,1,2133,13.33046749,Europe/Rome,,,,VILLAGRAZIA - BELL'ALBA,0,2133,1
38.07944667,1,2130,13.33432333,Europe/Rome,,,,VILLAGRAZIA - AGNETTA,0,2130,1
38.08615187,1,2131,13.34814995,Europe/Rome,,,,VILLAGRAZIA - BARONE SCALA,0,2131,1
38.18550387,1,951,13.30215776,Europe/Rome,,,,LANZA DI SCALEA 2,0,951,1
38.16937,1,950,13.31508667,Europe/Rome,,,,LANZA DI SCALEA 1,0,950,1
38.16892167,1,953,13.31524667,Europe/Rome,,,,LANZA DI SCALEA 1,0,953,1
38.18521157,1,952,13.30216667,Europe/Rome,,,,LANZA DI SCALEA 2,0,952,1
38.08328167,1,2138,13.33655333,Europe/Rome,,,,VILLAGRAZIA - CILIO,0,2138,1
38.08692559,1,2139,13.34360897,Europe/Rome,,,,VILLAGRAZIA - DELLA VISITAZIONE,0,2139,1
38.16121,1,2002,13.32253667,Europe/Rome,,,,STRASBURGO - MALTESE,0,2002,1
38.16208333,1,2003,13.32167,Europe/Rome,,,,STRASBURGO - MALTESE,0,2003,1
38.15784833,1,2000,13.32559833,Europe/Rome,,,,STRASBURGO - INGEGNEROS,0,2000,1
38.15759,1,2001,13.325705,Europe/Rome,,,,STRASBURGO - INGEGNEROS,0,2001,1
38.15855333,1,2006,13.32473833,Europe/Rome,,,,STRASBURGO - PANTELLERIA,0,2006,1
38.15556667,1,2007,13.327675,Europe/Rome,,,,STRASBURGO - SVIZZERA,0,2007,1
38.16078,1,2004,13.32275333,Europe/Rome,,,,STRASBURGO - NUOVA,0,2004,1
38.15888,1,2005,13.32459167,Europe/Rome,,,,STRASBURGO - PANTELLERIA,0,2005,1
38.163205,1,2008,13.32073833,Europe/Rome,,,,STRASBURGO - VILLA ADRIANA,0,2008,1
38.197530952,1,2009,13.275920962,Europe/Rome,,,,TACITO,0,2009,1
38.1068018,1,9074,13.3299785,Europe/Rome,,,,USCIBENE,0,9074,1
38.1108043,1,9072,13.3295876,Europe/Rome,,,,PITRE',0,9072,1
38.1207182,1,9073,13.3290138,Europe/Rome,,,,PERPIGNANO,0,9073,1
38.1157736,1,9070,13.3289653,Europe/Rome,,,,EMIRI,0,9070,1
38.1073954,1,9071,13.3303137,Europe/Rome,,,,PAGANO - LA LOGGIA,0,9071,1
38.08785867,1,665,13.4212726,Europe/Rome,,,,DEI MILLE 3,0,665,1
38.17014401,1,1799,13.30609755,Europe/Rome,,,,S. LORENZO - ANAS,0,1799,1
38.08458989,1,664,13.42500094,Europe/Rome,,,,DEI MILLE 2,0,664,1
38.15634257,1,719,13.3453846,Europe/Rome,,,,DIANA - COLONIA COMUNALE,0,719,1
38.16764645,1,718,13.33919406,Europe/Rome,,,,DIANA - CASA NATURA,0,718,1
38.15317042,1,717,13.34867835,Europe/Rome,,,,DIANA - CAMPO OSTACOLI,0,717,1
38.087875,1,663,13.42109,Europe/Rome,,,,DEI MILLE 1,0,663,1
38.09141422,1,1791,13.36174188,Europe/Rome,,,,S. FILIPPO - SIRIO,0,1791,1
38.12274011,1,714,13.32673622,Europe/Rome,,,,DI BLASI - TELESINO,0,714,1
38.12292511,1,713,13.32416318,Europe/Rome,,,,DI BLASI - SCUOLA CORRADINI,0,713,1
38.12337207,1,712,13.32011819,Europe/Rome,,,,DI BLASI - SAVONAROLA,0,712,1
38.12346596,1,711,13.31995592,Europe/Rome,,,,DI BLASI - SAVONAROLA,0,711,1
38.18888182,1,1266,13.31674933,Europe/Rome,,,,OLIMPO - PALASPORT,0,1266,1
38.09461233,1,661,13.40357326,Europe/Rome,,,,DEI MILLE - XXVII MAGGIO,0,661,1
38.18909783,1,1264,13.30680473,Europe/Rome,,,,OLIMPO - CHIRONE,0,1264,1
38.0984703,1,1069,13.35397437,Europe/Rome,,,,MADONIA - LI BASSI,0,1069,1
38.09850333,1,1068,13.35402,Europe/Rome,,,,MADONIA - LI BASSI,0,1068,1
38.10884293,1,1061,13.30872148,Europe/Rome,,,,MADDALENA - PIAZZA MICCA,0,1061,1
38.1068865,1,1065,13.30957174,Europe/Rome,,,,MADDALENA 1,0,1065,1
38.10707064,1,1064,13.30939104,Europe/Rome,,,,MADDALENA 1,0,1064,1
38.12531177,1,1667,13.32965849,Europe/Rome,,,,REGIONE SICILIANA - NAZARIO SAURO,0,1667,1
38.13526333,1,1666,13.33029912,Europe/Rome,,,,REGIONE SICILIANA - MINEO,0,1666,1
38.12164579,1,1665,13.32865399,Europe/Rome,,,,REGIONE SICILIANA - MAZZARELLO,0,1665,1
38.14656646,1,1664,13.32771745,Europe/Rome,,,,REGIONE SICILIANA - MANDALA',0,1664,1
38.09013556,1,1662,13.36471703,Europe/Rome,,,,REGIONE SICILIANA - LEVRIERE 2,0,1662,1
38.089538,1,1661,13.36638479,Europe/Rome,,,,REGIONE SICILIANA - LEVRIERE 1,0,1661,1
38.12012833,1,1660,13.32905812,Europe/Rome,,,,REGIONE SICILIANA - LA MANNA,0,1660,1
38.12429099,1,591,13.35286394,Europe/Rome,,,,DANTE - VILLAFRANCA,0,591,1
38.16210017,1,1086,13.32334489,Europe/Rome,,,,MALTESE,0,1086,1
38.12521677,1,1085,13.34629638,Europe/Rome,,,,MALASPINA - TURRISI COLONNA,0,1085,1
38.12480372,1,592,13.35477904,Europe/Rome,,,,DANTE - XX SETTEMBRE,0,592,1
38.12410734,1,1083,13.34809784,Europe/Rome,,,,MALASPINA - PIAZZA VIRGILIO,0,1083,1
38.14140232,1,599,13.346432,Europe/Rome,,,,D'AZEGLIO - CORDOVA,0,599,1
38.19955673,1,1089,13.279991,Europe/Rome,,,,MANDERINO - FILISTO,0,1089,1
38.1915351,1,1403,13.30098521,Europe/Rome,,,,PARTANNA MONDELLO - SCORDIA,0,1403,1
38.19147892,1,1402,13.30107609,Europe/Rome,,,,PARTANNA MONDELLO - PIAZZA BOLIVAR,0,1402,1
38.19290887,1,1401,13.30222956,Europe/Rome,,,,PARTANNA MONDELLO - MATOTTA,0,1401,1
38.19285725,1,1400,13.30231987,Europe/Rome,,,,PARTANNA MONDELLO - MATOTTA,0,1400,1
38.10703952,1,1546,13.34690407,Europe/Rome,,,,PISANI - ONORATO,0,1546,1
38.08285211,1,449,13.39651957,Europe/Rome,,,,CIACULLI 3,0,449,1
38.08268743,1,448,13.39664698,Europe/Rome,,,,CIACULLI 3,0,448,1
38.13722333,1,1339,13.30804167,Europe/Rome,,,,PALADINI - BERRETTARO,0,1339,1
38.15502648,1,693,13.33905727,Europe/Rome,,,,DEL FANTE - PIAZZETTA SALERNO,0,693,1
38.07221396,1,443,13.41397271,Europe/Rome,,,,CIACULLI 10,0,443,1
38.07252541,1,442,13.4135288,Europe/Rome,,,,CIACULLI 10,0,442,1
38.08656987,1,441,13.39181632,Europe/Rome,,,,CIACULLI 1,0,441,1
38.08663954,1,440,13.39158163,Europe/Rome,,,,CIACULLI 1,0,440,1
38.08517019,1,447,13.39375019,Europe/Rome,,,,CIACULLI 2,0,447,1
38.052075,1,690,13.30952,Europe/Rome,,,,DEL FANTE - DEL BERSAGLIERE,0,690,1
38.07070525,1,445,13.41589183,Europe/Rome,,,,CIACULLI 11,0,445,1
38.07069364,1,444,13.41581807,Europe/Rome,,,,CIACULLI 11,0,444,1
38.15985609,1,696,13.33531378,Europe/Rome,,,,DEL FANTE - TEATRO DELLA VERDURA,0,696,1
38.14101071,1,39,13.35206442,Europe/Rome,,,,ALESSI - PUGLISI,0,39,1
38.09174433,1,33,13.36002747,Europe/Rome,,,,AIRONE - S. FILIPPO,0,33,1
38.08928522,1,32,13.35640019,Europe/Rome,,,,AIRONE - FOLAGA,0,32,1
38.08939132,1,31,13.35676119,Europe/Rome,,,,AIRONE - FOLAGA,0,31,1
38.12442734,1,30,13.29976628,Europe/Rome,,,,AI VILLINI A S. ISIDORO - S. ISIDORO,0,30,1
38.08864718,1,37,13.35497081,Europe/Rome,,,,AIRONE - USIGNOLO,0,37,1
38.09031805,1,36,13.35869372,Europe/Rome,,,,AIRONE - TROINA,0,36,1
38.09033229,1,35,13.35860765,Europe/Rome,,,,AIRONE - TROINA,0,35,1
38.09183374,1,34,13.36019978,Europe/Rome,,,,AIRONE - S. FILIPPO,0,34,1
38.12091167,1,1537,13.3564,Europe/Rome,,,,PIGNATELLI ARAGONA,0,1537,1
38.09228645,1,640,13.41070594,Europe/Rome,,,,DEI MILLE - LAUDICINA,0,640,1
38.18885269,1,1243,13.29709594,Europe/Rome,,,,NICOLETTI - PIAZZA BOLIVAR,0,1243,1
38.1890259233,1,1242,13.2966536367,Europe/Rome,,,,NICOLETTI - PIAZZA BOLIVAR,0,1242,1
38.19342318,1,1244,13.28619221,Europe/Rome,,,,NICOLETTI - T.S. 49,0,1244,1
38.11597333,1,1247,13.33204333,,,40000,,NINA SICILIANA - PARCHEGGIO EMIRI,0,1247,1
38.19107359,1,1246,13.29122048,Europe/Rome,,,,NICOLETTI,0,1246,1
38.10314445,1,649,13.37872982,Europe/Rome,,,,DEI MILLE - S. G. DEI LEBBROSI,0,649,1
38.10464167,1,648,13.37672333,Europe/Rome,,,,DEI MILLE - PONTE AMMIRAGLIO,0,648,1
38.10532177,1,1539,13.34293281,Europe/Rome,,,,PISANI - CATALANO,0,1539,1
38.10890414,1,1538,13.36281627,Europe/Rome,,,,PISACANE,0,1538,1
38.1519039587,1,339,13.3401056275,,,60000,,CASSARA',0,339,1
38.1833146,1,335,13.31639649,Europe/Rome,,,,CARNERA - MARCIANO,0,335,1
38.18164908,1,334,13.31759239,Europe/Rome,,,,CARNERA - AGESIA DI SIRACUSA,0,334,1
38.13425667,1,337,13.30600167,Europe/Rome,,,,CARRECA - CELONA,0,337,1
38.11096667,1,330,13.34688167,Europe/Rome,,,,CAPPUCCINI,0,330,1
38.19793902,1,333,13.31623912,Europe/Rome,,,,CARBONE - TUBEROSA,0,333,1
38.11088333,1,332,13.34569,Europe/Rome,,,,CAPPUCCINI,0,332,1
38.16816647,1,8,13.30184899,Europe/Rome,,,,ACC. A29 MONTE - R.L 23,0,8,1
38.12429667,1,1889,13.35033667,Europe/Rome,,,,SAMMARTINO - DEL FERVORE,0,1889,1
38.12764584,1,1888,13.34842086,Europe/Rome,,,,SAMMARTINO - CATANIA,0,1888,1
38.13821,1,2121,13.34983,Europe/Rome,,,,VILLABIANCA - GENERALE STREVA,0,2121,1
38.13824534,1,2120,13.34987998,Europe/Rome,,,,VILLABIANCA - GENERALE STREVA,0,2120,1
38.1405727,1,2123,13.34824023,Europe/Rome,,,,VILLABIANCA - VACCARINI,0,2123,1
38.13505763,1,2122,13.35197747,Europe/Rome,,,,VILLABIANCA - LAURANA,0,2122,1
38.0615014,1,2125,13.32125276,Europe/Rome,,,,VILLACIAMBRA 1,0,2125,1
38.14059331,1,2124,13.34831893,Europe/Rome,,,,VILLABIANCA - VACCARINI,0,2124,1
38.06044758,1,2127,13.31952542,Europe/Rome,,,,VILLACIAMBRA 2,0,2127,1
38.06054262,1,2126,13.31957906,Europe/Rome,,,,VILLACIAMBRA 2,0,2126,1
38.07957542,1,2129,13.33429232,Europe/Rome,,,,VILLAGRAZIA - AGNETTA,0,2129,1
38.06145833,1,2128,13.32129833,Europe/Rome,,,,VILLACIAMBRA 1,0,2128,1
38.16791646,1,945,13.31625305,Europe/Rome,,,,LANZA DI SCALEA - SAVAGNONE,0,945,1
38.176455,1,942,13.31033833,Europe/Rome,,,,LANZA DI SCALEA - M.C.T.C.,0,942,1
38.18794441,1,943,13.2999082,Europe/Rome,,,,LANZA DI SCALEA - OLIMPO,0,943,1
38.18323319,1,940,13.30400763,Europe/Rome,,,,LANZA DI SCALEA - FARAONE,0,940,1
38.18320201,1,941,13.30378253,Europe/Rome,,,,LANZA DI SCALEA - FARAONE,0,941,1
38.14619075,1,133,13.34276919,Europe/Rome,,,,ARTIGLIERE,0,133,1
38.14604833,1,132,13.34280167,Europe/Rome,,,,ARTIGLIERE,0,132,1
38.09981667,1,131,13.34804,Europe/Rome,,,,ARTALE,0,131,1
38.11727833,1,130,13.33356833,Europe/Rome,,,,ARCULEO,0,130,1
38.13150585,1,137,13.2918705,Europe/Rome,,,,AUGUSTA - CENTURIPE,0,137,1
38.19788,1,136,13.3105,Europe/Rome,,,,ATLANTE - PIAZZA DELLA SERENITA',0,136,1
38.19752368,1,135,13.31213996,Europe/Rome,,,,ATLANTE - IFIGENIA,0,135,1
38.17855671,1,134,13.31651026,Europe/Rome,,,,ASCARI,0,134,1
38.12878308,1,1354,13.2929863,Europe/Rome,,,,PANTALICA - TINDARI,0,1354,1
38.20590833,1,2019,13.32457333,Europe/Rome,,,,TETI,0,2019,1
38.12914704,1,2018,13.34527731,Europe/Rome,,,,TERRASANTA - RANDAZZO,0,2018,1
38.09732315,1,2015,13.3222827,Europe/Rome,,,,TERRANOVA - LENIN MANCUSO,0,2015,1
38.13089333,1,2017,13.34412,Europe/Rome,,,,TERRASANTA - COSTANTINO,0,2017,1
38.11599055,1,2011,13.32881615,Europe/Rome,,,,TASCALANZA - BALESTRATE,0,2011,1
38.11207211,1,2010,13.32929833,Europe/Rome,,,,TASCALANZA - AMAP,0,2010,1
38.11327223,1,2013,13.32916594,Europe/Rome,,,,TASCALANZA - PORTELLO,0,2013,1
38.10923791,1,2012,13.32961688,Europe/Rome,,,,TASCALANZA - PITRE',0,2012,1
38.1262268,1,9061,13.3051992,Europe/Rome,,,,MICHELANGELO - CASTELLANA,0,9061,1
38.126167,1,9060,13.3046603,Europe/Rome,,,,MICHELANGELO - CASTELLANA,0,9060,1
38.1298664,1,9063,13.29361165,Europe/Rome,,,,PIAZZA AMERINA - SAN PAOLO,0,9063,1
38.1262004,1,9062,13.2990844,Europe/Rome,,,,MODICA,0,9062,1
38.1292806,1,9065,13.2989371,Europe/Rome,,,,PIAZZA SANTA CRISTINA,0,9065,1
38.1291894,1,9067,13.3317956,Europe/Rome,,,,GIOTTO - MIGLIACCIO,0,9067,1
38.1300407,1,9066,13.3353542,Europe/Rome,,,,GALILEI - PACINOTTI,0,9066,1
38.1160197,1,9069,13.3293065,Europe/Rome,,,,EMIRI,0,9069,1
38.1292835,1,9068,13.3323176,Europe/Rome,,,,GIOTTO - MIGLIACCIO,0,9068,1
38.09845833,1,183,13.346445,Europe/Rome,,,,BASILE - SABATO,0,183,1
38.11755232,1,1771,13.36307913,Europe/Rome,,,,ROMA - VUCCIRIA,0,1771,1
38.12307333,1,708,13.32247,Europe/Rome,,,,DI BLASI - RINDONE,0,708,1
38.195509165,1,704,13.333539165,Europe/Rome,,,,DELLE PALME - PRINCIPESSA IOLANDA,0,704,1
38.19564333,1,705,13.33687333,Europe/Rome,,,,DELLE PALME - PRINCIPESSA MARIA,0,705,1
38.12587032,1,706,13.31355482,Europe/Rome,,,,DI BLASI - PASSO DI RIGANO,0,706,1
38.12583129,1,707,13.31384718,Europe/Rome,,,,DI BLASI - PASSO DI RIGANO,0,707,1
38.10368333,1,700,13.36260833,Europe/Rome,,,,DEL VESPRO - DELLE CLINICHE,0,700,1
38.14454833,1,701,13.33235833,Europe/Rome,,,,DELLE ALPI - NEBRODI,0,701,1
38.1956225,1,702,13.336075,Europe/Rome,,,,DELLE PALME - PRINCIPESSA GIOVANNA,0,702,1
38.19542,1,703,13.33380167,Europe/Rome,,,,DELLE PALME - PRINCIPESSA IOLANDA,0,703,1
38.14366833,1,88,13.36058667,Europe/Rome,,,,AMMIRAGLIO RIZZO - DON ORIONE,0,88,1
38.1433954233,1,89,13.3587848433,Europe/Rome,,,,AMMIRAGLIO RIZZO - GENERALE CASCINO,0,89,1
38.14432167,1,86,13.36566167,Europe/Rome,,,,AMMIRAGLIO RIZZO - CALCEDONIO,0,86,1
38.1436541933,1,87,13.3607192367,Europe/Rome,,,,AMMIRAGLIO RIZZO - DON ORIONE,0,87,1
38.19621,1,84,13.30640833,Europe/Rome,,,,AMARILLI - PARTANNA MONDELLO,0,84,1
38.1442648033,1,85,13.36576341,Europe/Rome,,,,AMMIRAGLIO RIZZO - CALCEDONIO,0,85,1
38.13027901,1,1658,13.33023255,Europe/Rome,,,,REGIONE SICILIANA - GIOTTO,0,1658,1
38.10622036,1,1659,13.33050669,Europe/Rome,,,,REGIONE SICILIANA - LA LOGGIA,0,1659,1
38.08709056,1,1652,13.35621943,Europe/Rome,,,,REGIONE SICILIANA - DEL CIGNO,0,1652,1
38.08690343,1,1653,13.35545898,Europe/Rome,,,,REGIONE SICILIANA - DEL CIGNO,0,1653,1
38.1233762,1,1650,13.32944712,Europe/Rome,,,,REGIONE SICILIANA - DE SANCTIS,0,1650,1
38.10167945,1,1651,13.32987216,Europe/Rome,,,,REGIONE SICILIANA - DEI FIORI,0,1651,1
38.12364158,1,1656,13.32887927,Europe/Rome,,,,REGIONE SICILIANA - DI BLASI,0,1656,1
38.12495757,1,1657,13.32902594,Europe/Rome,,,,REGIONE SICILIANA - DI GIORGI,0,1657,1
38.14634531,1,1654,13.32873458,Europe/Rome,,,,REGIONE SICILIANA - DELLE MADONIE,0,1654,1
38.12191067,1,1655,13.3292737,Europe/Rome,,,,REGIONE SICILIANA - DI BLASI,0,1655,1
38.12262734,1,586,13.34587113,Europe/Rome,,,,DANTE - STAZIONE LOLLI,0,586,1
38.12209864,1,587,13.34407568,Europe/Rome,,,,DANTE - VENEZIANO,0,587,1
38.12361767,1,584,13.35000614,Europe/Rome,,,,DANTE - SAMMARTINO,0,584,1
38.12259599,1,585,13.34596732,Europe/Rome,,,,DANTE - STAZIONE LOLLI,0,585,1
38.1232417,1,582,13.34836574,Europe/Rome,,,,DANTE - PIAZZA VIRGILIO,0,582,1
38.12382361,1,583,13.35129753,Europe/Rome,,,,DANTE - SAMMARTINO,0,583,1
38.1323325213,1,580,13.35368736,Europe/Rome,,,,DALLA CHIESA,0,580,1
38.12321381,1,581,13.34856033,Europe/Rome,,,,DANTE - PIAZZA VIRGILIO,0,581,1
38.11030667,1,1984,13.36686167,,,20000,,STAZIONE CENTRALE - PENSILINA ESTERNA,0,1984,1
38.12193422,1,588,13.34300711,Europe/Rome,,,,DANTE - VENEZIANO,0,588,1
38.12146477,1,589,13.34131612,Europe/Rome,,,,DANTE - VILLA MALFITANO,0,589,1
38.1102460453,1,1985,13.3669058088,,,20000,,STAZIONE CENTRALE - PENSILINA INTERNA,0,1985,1
38.1101068233,1,1982,13.3658767433,,,20000,,STAZIONE CENTRALE - MAUROLICO,0,1982,1
38.11999468,1,1437,13.32157101,Europe/Rome,,,,PERPIGNANO - ANAPO,0,1437,1
38.11064213,1,1980,13.36719624,,,20000,,STAZIONE CENTRALE - LINCOLN,0,1980,1
38.09313198,1,418,13.36866424,Europe/Rome,,,,CHIAVELLI - PLEIADI,0,418,1
38.11893667,1,1438,13.334,Europe/Rome,,,,PERPIGNANO - ARCULEO,0,1438,1
38.07392427,1,458,13.41047645,Europe/Rome,,,,CIACULLI 8,0,458,1
38.07387149,1,459,13.41072857,Europe/Rome,,,,CIACULLI 8,0,459,1
38.08161598,1,450,13.3979398,Europe/Rome,,,,CIACULLI 4,0,450,1
38.08152667,1,451,13.39810167,Europe/Rome,,,,CIACULLI 4,0,451,1
38.19855549,1,1342,13.254125,Europe/Rome,,,,PALERMO - CAMPING,0,1342,1
38.19849015,1,1343,13.25452879,Europe/Rome,,,,PALERMO - CAMPING,0,1343,1
38.19859265,1,1344,13.25100602,Europe/Rome,,,,PALERMO - PIANO LEVANTE,0,1344,1
38.07592487,1,455,13.40704456,Europe/Rome,,,,CIACULLI 6,0,455,1
38.07483333,1,456,13.40880167,Europe/Rome,,,,CIACULLI 7,0,456,1
38.07479333,1,457,13.40894167,Europe/Rome,,,,CIACULLI 7,0,457,1
38.09849267,1,656,13.39265033,Europe/Rome,,,,DEI MILLE - TORRELUNGA,0,656,1
38.09915841,1,657,13.39032501,Europe/Rome,,,,DEI MILLE - SALEMI,0,657,1
38.1902384,1,1500,13.28552842,Europe/Rome,,,,PIAZZA TOMMASO NATALE,0,1500,1
38.107235,1,655,13.372575,Europe/Rome,,,,DEI MILLE - TIRO A SEGNO,0,655,1
38.090928,1,652,13.4144313,Europe/Rome,,,,DEI MILLE - SCUOLA NATOLI,0,652,1
38.05923441,1,1507,13.31754164,Europe/Rome,,,,PIAZZA VILLACIAMBRA,0,1507,1
38.18932031,1,1504,13.28655973,Europe/Rome,,,,PIAZZA TOMMASO NATALE - STAZIONE FS,0,1504,1
38.12097142,1,1505,13.35734705,Europe/Rome,,,,PIAZZA VERDI,0,1505,1
38.0894346,1,658,13.41855794,Europe/Rome,,,,DEI MILLE - VACCARO,0,658,1
38.08960922,1,659,13.41847883,Europe/Rome,,,,DEI MILLE - VACCARO,0,659,1
38.1728804,1,948,13.31232052,Europe/Rome,,,,LANZA DI SCALEA - VELODROMO,0,948,1
38.17243544,1,949,13.31243216,Europe/Rome,,,,LANZA DI SCALEA - VELODROMO,0,949,1
38.16741333,1,946,13.31646667,Europe/Rome,,,,LANZA DI SCALEA - SAVAGNONE,0,946,1
38.1377961,1,322,13.3661913,Europe/Rome,,,,CANTIERI - ORTOLANI,0,322,1
38.13777964,1,323,13.36581964,Europe/Rome,,,,CANTIERI - ORTOLANI,0,323,1
38.13654391,1,320,13.36081132,Europe/Rome,,,,CANTIERI - MARVUGLIA,0,320,1
38.13661881,1,321,13.36152077,Europe/Rome,,,,CANTIERI - MARVUGLIA,0,321,1
38.18115608,1,324,13.31217349,Europe/Rome,,,,CAPPAROZZO - S. NICOLA,0,324,1
38.11069168,1,328,13.34247038,Europe/Rome,,,,CAPPUCCINI - QUARTO DEI MILLE,0,328,1
38.11072667,1,329,13.34192,Europe/Rome,,,,CAPPUCCINI - QUARTO DEI MILLE,0,329,1
38.13428964,1,1340,13.30958895,Europe/Rome,,,,PALADINI - MICHELANGELO,0,1340,1
38.1053,1,1341,13.36338167,Europe/Rome,,,,PALERMO,0,1341,1
38.153993,1,1995,13.32933962,Europe/Rome,,,,STRASBURGO - DANIMARCA,0,1995,1
38.09642916,1,2248,13.37191969,Europe/Rome,,,,PARATORE - ORSA MINORE,0,2248,1
38.12291393,1,2249,13.32363591,Europe/Rome,,,,DI BLASI - CORRADINI,0,2249,1
38.0913413,1,2244,13.37594837,Europe/Rome,,,,REGIONE SICILIANA - ORETO,0,2244,1
38.0923657,1,2245,13.3749184,Europe/Rome,,,,PARATORE - SIDNEY,0,2245,1
38.08798958,1,2246,13.39010104,Europe/Rome,,,,ACC. MONTE A19 - CIACULLI,0,2246,1
38.09457899,1,2247,13.37360144,Europe/Rome,,,,PARATORE - GRASSO,0,2247,1
38.10104891,1,2240,13.38399053,Europe/Rome,,,,D'AOSTA - DEI MILLE,0,2240,1
38.1115346,1,2241,13.37213179,Europe/Rome,,,,ARCHIRAFI - LINCOLN,0,2241,1
38.09982031,1,2242,13.33544514,Europe/Rome,,,,CASALAINA,0,2242,1
38.1000952,1,2243,13.33712267,Europe/Rome,,,,PALMERINO - SCONTRINO,0,2243,1
38.12653074,1,995,13.30916405,Europe/Rome,,,,LEONARDO DA VINCI - RIBOLLA,0,995,1
38.12917408,1,994,13.3315352,Europe/Rome,,,,LEONARDO DA VINCI - PIAZZA EINSTEIN,0,994,1
38.12610453,1,997,13.30501199,Europe/Rome,,,,LEONARDO DA VINCI - ROMANIA,0,997,1
38.1267544,1,996,13.30973536,Europe/Rome,,,,LEONARDO DA VINCI - RIBOLLA,0,996,1
38.12714049,1,991,13.3239103,Europe/Rome,,,,LEONARDO DA VINCI - GIAQUINTO,0,991,1
38.1304305,1,990,13.33640341,Europe/Rome,,,,LEONARDO DA VINCI - GALILEI,0,990,1
38.12621,1,998,13.30432833,Europe/Rome,,,,LEONARDO DA VINCI - ROMANIA,0,998,1
38.07474734,1,120,13.30420964,Europe/Rome,,,,AQUINO 5 MONTE,0,120,1
38.07467912,1,121,13.30418453,Europe/Rome,,,,AQUINO 5 VALLE,0,121,1
38.08098631,1,122,13.30764797,Europe/Rome,,,,AQUINO MOLARA - DECANO,0,122,1
38.08092243,1,123,13.30766603,Europe/Rome,,,,AQUINO MOLARA - DECANO,0,123,1
38.08036927,1,124,13.30567047,Europe/Rome,,,,AQUINO MOLARA - GALATI,0,124,1
38.08037852,1,125,13.30582732,Europe/Rome,,,,AQUINO MOLARA - GALATI,0,125,1
38.10891733,1,128,13.37416696,Europe/Rome,,,,ARCHIRAFI - TIRO A SEGNO,0,128,1
38.13183466,1,1189,13.30657594,Europe/Rome,,,,MICHELANGELO 5,0,1189,1
38.20100333,1,2068,13.280665,Europe/Rome,,,,TRITONE - NAIADI,0,2068,1
38.19919833,1,2069,13.28119333,Europe/Rome,,,,TRITONE - PARCHEGGIO,0,2069,1
38.10099167,1,2060,13.35759,Europe/Rome,,,,TRICOMI - PARLAVECCHIO,0,2060,1
38.10113667,1,2061,13.357435,Europe/Rome,,,,TRICOMI - PARLAVECCHIO,0,2061,1
38.10240167,1,2062,13.35548833,Europe/Rome,,,,TRICOMI - UGHETTI,0,2062,1
38.10275833,1,2063,13.355065,Europe/Rome,,,,TRICOMI - UGHETTI,0,2063,1
38.15091297,1,2064,13.33835071,Europe/Rome,,,,TRINACRIA,0,2064,1
38.20304,1,2065,13.279475,Europe/Rome,,,,TRITONE - BARCARELLO,0,2065,1
38.20289667,1,2066,13.27953833,Europe/Rome,,,,TRITONE - BARCARELLO,0,2066,1
38.20107667,1,2067,13.280705,Europe/Rome,,,,TRITONE - NAIADI,0,2067,1
38.12916181,1,521,13.36138934,Europe/Rome,,,,CRISPI - SCINA',0,521,1
38.19533691,1,1397,13.30650878,Europe/Rome,,,,PARTANNA MONDELLO - DIONISO,0,1397,1
38.09433519,1,1745,13.34747404,Europe/Rome,,,,ROCCELLA - CALABRO',0,1745,1
38.08935622,1,1645,13.37009073,Europe/Rome,,,,REGIONE SICILIANA - CHIAVELLI,0,1645,1
38.08868133,1,1644,13.3691294,Europe/Rome,,,,REGIONE SICILIANA - CHIAVELLI,0,1644,1
38.08781,1,1647,13.35844552,Europe/Rome,,,,REGIONE SICILIANA - CINGALLEGRA,0,1647,1
38.08838963,1,1646,13.35977197,Europe/Rome,,,,REGIONE SICILIANA - CINGALLEGRA,0,1646,1
38.10206488,1,1641,13.33081927,Europe/Rome,,,,REGIONE SICILIANA - CALATAFIMI,0,1641,1
38.09515629,1,1640,13.3368492967,Europe/Rome,,,,REGIONE SICILIANA - BRASA,0,1640,1
38.19461098,1,1396,13.30489383,Europe/Rome,,,,PARTANNA MONDELLO - CHIMERA,0,1396,1
38.13170945,1,1649,13.33041536,Europe/Rome,,,,REGIONE SICILIANA - DE SALIBA,0,1649,1
38.09694866,1,1648,13.33535719,Europe/Rome,,,,REGIONE SICILIANA - D'ANNA,0,1648,1
38.20110823,1,729,13.31777021,Europe/Rome,,,,DIOMEDE - AIACE,0,729,1
38.14428833,1,573,13.31786167,Europe/Rome,,,,CRUILLAS 4,0,573,1
38.14337259,1,572,13.31983119,Europe/Rome,,,,CRUILLAS 3,0,572,1
38.14235793,1,571,13.32329124,Europe/Rome,,,,CRUILLAS 2,0,571,1
38.14092333,1,570,13.32693333,Europe/Rome,,,,CRUILLAS 1,0,570,1
38.1254863,1,575,13.34751159,Europe/Rome,,,,CUSMANO - TURRISI COLONNA,0,575,1
38.12705612,1,574,13.34655136,Europe/Rome,,,,CUSMANO - CATANIA,0,574,1
38.20620457,1,1208,13.32422599,Europe/Rome,,,,MONDELLO - TOLOMEA,0,1208,1
38.14956151,1,1997,13.33272725,Europe/Rome,,,,STRASBURGO - DE GASPERI,0,1997,1
38.20300647,1,731,13.31694969,Europe/Rome,,,,DIOMEDE - MERCURIO,0,731,1
38.201435,1,730,13.31750833,Europe/Rome,,,,DIOMEDE - AIACE,0,730,1
38.20466657,1,733,13.31657099,Europe/Rome,,,,DIOMEDE - TOLOMEA,0,733,1
38.1770103,1,938,13.30961385,Europe/Rome,,,,LANZA DI SCALEA - EINAUDI,0,938,1
38.16963594,1,737,13.32814501,Europe/Rome,,,,DUCA DEGLI ABRUZZI - AMMIRAGLIO CAGNI,0,737,1
38.1695344,1,736,13.3282848,Europe/Rome,,,,DUCA DEGLI ABRUZZI - AMMIRAGLIO CAGNI,0,736,1
38.16644504,1,739,13.3301543,Europe/Rome,,,,DUCA DEGLI ABRUZZI - PALAZZINA CINESE,0,739,1
38.16782032,1,738,13.32903818,Europe/Rome,,,,DUCA DEGLI ABRUZZI - CITTA' DEI RAGAZZI,0,738,1
38.14881833,1,1359,13.37084167,Europe/Rome,,,,PAPA SERGIO - BOSCO,0,1359,1
38.08608854,1,1358,13.3615087,Europe/Rome,,,,PAPA GIOVANNI XXIII - ERMELLINO,0,1358,1
38.08374304,1,1351,13.36134508,Europe/Rome,,,,PANEPINTO - GIRAFFA,0,1351,1
38.08326327,1,1350,13.36200021,Europe/Rome,,,,PANEPINTO,0,1350,1
38.07332039,1,461,13.41205895,Europe/Rome,,,,CIACULLI 9,0,461,1
38.07335206,1,460,13.41186851,Europe/Rome,,,,CIACULLI 9,0,460,1
38.098248,1,463,13.38947427,Europe/Rome,,,,CIRINCIONE - CAVALLACCI,0,463,1
38.09903656,1,462,13.38707971,Europe/Rome,,,,CIRINCIONE - CARELLA,0,462,1
38.16187,1,937,13.31462333,Europe/Rome,,,,LA MALFA - TRANCHINA,0,937,1
38.16285865,1,936,13.31389375,Europe/Rome,,,,LA MALFA - TRANCHINA,0,936,1
38.13161767,1,1519,13.33095297,,,50000,,PIAZZALE JOHN LENNON 534,0,1519,1
38.13167569,1,1518,13.33096236,,,50000,,PIAZZALE JOHN LENNON 529,0,1518,1
38.1319468,1,1514,13.33100259,,,50000,,PIAZZALE JOHN LENNON 134,0,1514,1
38.13172738,1,1516,13.33097175,,,50000,,PIAZZALE JOHN LENNON 513,0,1516,1
38.13191926,1,1511,13.33098416,,,50000,,PIAZZALE JOHN LENNON 103,0,1511,1
38.13112675,1,1510,13.33922509,Europe/Rome,,,,PIAZZA ZIINO,0,1510,1
38.13207655,1,1512,13.33101734,,,50000,,PIAZZALE JOHN LENNON 110,0,1512,1
38.0808232,1,1275,13.31887633,Europe/Rome,,,,OLIO DI LINO 10,0,1275,1
38.12576482,1,357,13.30443263,Europe/Rome,,,,CASTELLANA - CARTAGINE,0,357,1
38.12550213,1,356,13.29650268,Europe/Rome,,,,CASTELLANA - BRONTE,0,356,1
38.12572952,1,355,13.2910594025,Europe/Rome,,,,CASTELLANA - BRONTE,0,355,1
38.18451675,1,354,13.32416967,Europe/Rome,,,,CASTELFORTE,0,354,1
38.18775711,1,351,13.32308739,Europe/Rome,,,,CASTELFORTE - VENERE,0,351,1
38.19176255,1,1111,13.33266154,Europe/Rome,,,,MARGHERITA DI SAVOIA - VENERE,0,1111,1
38.19337205,1,1110,13.33228067,Europe/Rome,,,,MARGHERITA DI SAVOIA - PIAZZA CABOTO,0,1110,1
38.1192985,1,1445,13.33664864,Europe/Rome,,,,PERPIGNANO - POLITO,0,1445,1
38.10060735,1,289,13.32409192,Europe/Rome,,,,CALATAFIMI - PAULSEN,0,289,1
38.09760277,1,288,13.31666216,Europe/Rome,,,,CALATAFIMI - PARUTA,0,288,1
38.0999837,1,1793,13.38351622,Europe/Rome,,,,S. GIOVANNI DI DIO,0,1793,1
38.11017258,1,280,13.34763144,Europe/Rome,,,,CALATAFIMI - MARIA ADELAIDE,0,280,1
38.09493481,1,283,13.31040138,Europe/Rome,,,,CALATAFIMI - OSPEDALE INGRASSIA,0,283,1
38.10523394,1,282,13.33554626,Europe/Rome,,,,CALATAFIMI - MARINUZZI,0,282,1
38.10408647,1,285,13.33295736,Europe/Rome,,,,CALATAFIMI - OSPEDALE MILITARE,0,285,1
38.09537373,1,284,13.31119046,Europe/Rome,,,,CALATAFIMI - OSPEDALE INGRASSIA,0,284,1
38.09825167,1,287,13.31843167,Europe/Rome,,,,CALATAFIMI - PARUTA,0,287,1
38.10058667,1,1114,13.35034667,Europe/Rome,,,,MARINI,0,1114,1
38.11917333,1,1441,13.33541667,Europe/Rome,,,,PERPIGNANO - D'AQUINO,0,1441,1
38.10624333,1,1116,13.36486,Europe/Rome,,,,MARINUZZI - PALERMO,0,1116,1
38.11961186,1,263,13.36934477,Europe/Rome,,,,CALA - S. MARIA DELLA CATENA,0,263,1
38.12003389,1,262,13.36667866,Europe/Rome,,,,CALA - MERCATO ITTICO,0,262,1
38.11964737,1,261,13.36653297,Europe/Rome,,,,CALA - MERCATO ITTICO,0,261,1
38.188506,1,260,13.29396511,Europe/Rome,,,,CADUTI SUL LAVORO 2,0,260,1
38.11083167,1,267,13.34939,Europe/Rome,,,,CALATAFIMI - CAPPUCCINI,0,267,1
38.10444333,1,266,13.33358833,Europe/Rome,,,,CALATAFIMI - ARCOLEO,0,266,1
38.10019333,1,1792,13.38343333,Europe/Rome,,,,S. GIOVANNI DI DIO,0,1792,1
38.10931333,1,264,13.34572667,Europe/Rome,,,,CALATAFIMI - ALBERGO DELLE POVERE,0,264,1
38.14470833,1,1031,13.34253833,Europe/Rome,,,,LIBERTA' - LAZIO,0,1031,1
38.09622652,1,269,13.31328258,Europe/Rome,,,,CALATAFIMI - CASERMA SCIANNA,0,269,1
38.09619089,1,268,13.31349273,Europe/Rome,,,,CALATAFIMI - CASERMA SCIANNA,0,268,1
38.10014167,1,1291,13.371565,Europe/Rome,,,,ORETO - BUONRIPOSO,0,1291,1
38.11055333,1,1564,13.32804,Europe/Rome,,,,PITRE' - SCUOLA BONANNO,0,1564,1
38.10975043,1,1566,13.31581458,Europe/Rome,,,,PITRE' - VILLA GRIFFOTTA,0,1566,1
38.15492103,1,2256,13.31718653,Europe/Rome,,,,TRABUCCO - REGIONE SICILIANA,0,2256,1
38.14079266,1,2255,13.34167778,Europe/Rome,,,,BORIS GIULIANO,0,2255,1
38.10979667,1,1567,13.31526833,Europe/Rome,,,,PITRE' - VILLA GRIFFOTTA,0,1567,1
38.1204,1,2252,13.33786234,Europe/Rome,,,,NOCE - CAMPOREALE,0,2252,1
38.12003811,1,2251,13.33901972,Europe/Rome,,,,NOCE - CAMPOREALE,0,2251,1
38.12252804,1,2250,13.3280535,Europe/Rome,,,,DI BLASI - REGIONE SICILIANA,0,2250,1
38.12978489,1,988,13.33398674,Europe/Rome,,,,LEONARDO DA VINCI - CENTRO BORSELLINO,0,988,1
38.11361877,1,982,13.33485156,Europe/Rome,,,,L'EMIRO - SCOTO,0,982,1
38.11352833,1,983,13.33475833,Europe/Rome,,,,L'EMIRO - SCOTO,0,983,1
38.11505167,1,980,13.34190309,Europe/Rome,,,,L'EMIRO - GUERRAZZI,0,980,1
38.11513502,1,981,13.34195539,Europe/Rome,,,,L'EMIRO - GUERRAZZI,0,981,1
38.12665312,1,986,13.31385791,Europe/Rome,,,,LEONARDO DA VINCI - CASALINI,0,986,1
38.12685989,1,987,13.3140631,Europe/Rome,,,,LEONARDO DA VINCI - CASALINI,0,987,1
38.127452,1,984,13.32438773,Europe/Rome,,,,LEONARDO DA VINCI - CAMILLIANI,0,984,1
38.12782123,1,985,13.32585356,Europe/Rome,,,,LEONARDO DA VINCI - CARPACCIO,0,985,1
38.07634293,1,115,13.31079751,Europe/Rome,,,,AQUINO 2 VALLE,0,115,1
38.07638621,1,114,13.31075326,Europe/Rome,,,,AQUINO 2 MONTE,0,114,1
38.09103157,1,1790,13.36190164,Europe/Rome,,,,S. FILIPPO - ORTIGIA,0,1790,1
38.07508241,1,116,13.30968574,Europe/Rome,,,,AQUINO 3 MONTE,0,116,1
38.07738,1,113,13.31225667,Europe/Rome,,,,AQUINO 1 VALLE,0,113,1
38.07739335,1,112,13.31218422,Europe/Rome,,,,AQUINO 1 MONTE,0,112,1
38.074695,1,119,13.30553833,Europe/Rome,,,,AQUINO 4 VALLE,0,119,1
38.07473833,1,118,13.30557167,Europe/Rome,,,,AQUINO 4 MONTE,0,118,1
38.13033177,1,2079,13.32539146,Europe/Rome,,,,UDITORE - CIMABUE,0,2079,1
38.1313466,1,2078,13.32437023,Europe/Rome,,,,UDITORE - ACI,0,2078,1
38.10980574,1,2073,13.36329827,Europe/Rome,,,,TUKORY - BALLARO',0,2073,1
38.1087163,1,2072,13.35895658,Europe/Rome,,,,TUKORY - ARCOLEO,0,2072,1
38.08969898,1,2071,13.35976904,Europe/Rome,,,,TROINA,0,2071,1
38.08966786,1,2070,13.35971564,Europe/Rome,,,,TROINA,0,2070,1
38.13121575,1,2077,13.32456663,Europe/Rome,,,,UDITORE - ACI,0,2077,1
38.13384243,1,2076,13.35906252,Europe/Rome,,,,UCCIARDONE,0,2076,1
38.10923997,1,2075,13.36139859,Europe/Rome,,,,TUKORY - PORTA S. AGATA,0,2075,1
38.1082731,1,2074,13.35703343,Europe/Rome,,,,TUKORY - FILICIUZZA,0,2074,1
38.126605,1,1388,13.34307667,Europe/Rome,,,,PARLATORE - AURISPA,0,1388,1
38.12315156,1,1389,13.34433719,Europe/Rome,,,,PARLATORE - DANTE,0,1389,1
38.2051079656,1,1630,13.325095,Europe/Rome,,,,REGINA ELENA - TETI,0,1630,1
38.197505235,1,1631,13.3310626113,Europe/Rome,,,,REGINA ELENA - VALDESI,0,1631,1
38.08666122,1,1632,13.3534876,Europe/Rome,,,,REGIONE SICILIANA - ALOI,0,1632,1
38.08635467,1,1633,13.35000883,Europe/Rome,,,,REGIONE SICILIANA - ALOI,0,1633,1
38.09606911,1,1634,13.33651458,Europe/Rome,,,,REGIONE SICILIANA - ALTOFONTE,0,1634,1
38.09651722,1,1635,13.33501638,Europe/Rome,,,,REGIONE SICILIANA - ALTOFONTE,0,1635,1
38.1484569,1,1636,13.32588245,Europe/Rome,,,,REGIONE SICILIANA - ATENASIO,0,1636,1
38.110225,1,1981,13.365465,,,20000,,STAZIONE CENTRALE - MAQUEDA,0,1981,1
38.15025,1,1638,13.32408,Europe/Rome,,,,REGIONE SICILIANA - BELGIO,0,1638,1
38.13129991,1,1639,13.32974969,Europe/Rome,,,,REGIONE SICILIANA - BERNINI,0,1639,1
38.20606441,1,1988,13.3215639,Europe/Rome,,,,STESICORO,0,1988,1
38.15527536,1,1989,13.32811117,Europe/Rome,,,,STRASBURGO - ALDISIO,0,1989,1
38.14179167,1,568,13.32538833,Europe/Rome,,,,CRUILLAS - ODDO,0,568,1
38.14281568,1,569,13.32154512,Europe/Rome,,,,CRUILLAS - ONER,0,569,1
38.150457224,1,560,13.338875494,Europe/Rome,,,,CROCE ROSSA - DE GASPERI,0,560,1
38.14809976,1,561,13.34050298,Europe/Rome,,,,CROCE ROSSA - EMILIA,0,561,1
38.148080476,1,562,13.340441302,Europe/Rome,,,,CROCE ROSSA - EMILIA,0,562,1
38.14666333,1,563,13.34149667,Europe/Rome,,,,CROCE ROSSA - STATUA,0,563,1
38.146275556,1,564,13.341623802,Europe/Rome,,,,CROCE ROSSA - STATUA,0,564,1
38.14935269,1,565,13.33969295,Europe/Rome,,,,CROCE ROSSA - VALDEMONE,0,565,1
38.149349188,1,566,13.339632934,Europe/Rome,,,,CROCE ROSSA - VALDEMONE,0,566,1
38.13016787,1,567,13.35273178,,,70000,,CROCI,0,567,1
38.1033059,1,9014,13.3869458,Europe/Rome,,,,AMEDEO D'AOSTA,0,9014,1
38.13204831,1,1188,13.30651383,Europe/Rome,,,,MICHELANGELO 4,0,1188,1
38.0969396,1,9015,13.4003573,Europe/Rome,,,,SAN SERGIO,0,9015,1
38.13671076,1,1186,13.31747952,Europe/Rome,,,,MICHELANGELO 2,0,1186,1
38.13461675,1,1187,13.31252289,Europe/Rome,,,,MICHELANGELO 3,0,1187,1
38.13910939,1,1184,13.32753105,Europe/Rome,,,,MICHELANGELO - SANTUARIO DI CRUILLAS,0,1184,1
38.13878136,1,1185,13.32614408,Europe/Rome,,,,MICHELANGELO 1,0,1185,1
38.13929722,1,1182,13.32911456,Europe/Rome,,,,MICHELANGELO - REGIONE SICILIANA,0,1182,1
38.13763627,1,1183,13.32127159,Europe/Rome,,,,MICHELANGELO - SALERNO,0,1183,1
38.13399506,1,1180,13.31102536,Europe/Rome,,,,MICHELANGELO - PALADINI,0,1180,1
38.13361905,1,1181,13.3107111,Europe/Rome,,,,MICHELANGELO - PALADINI,0,1181,1
38.1007939,1,9017,13.3920158,Europe/Rome,,,,BIONE,0,9017,1
38.09257367,1,1748,13.346135,Europe/Rome,,,,ROCCELLA - PONTE CORLEONE,0,1748,1
38.16997333,1,720,13.338785,Europe/Rome,,,,DIANA - NISCEMI,0,720,1
38.12339957,1,1744,13.3101237,Europe/Rome,,,,ROCCAZZO - MASSAUA,0,1744,1
38.1268826,1,9010,13.3178945,Europe/Rome,,,,RUGGERI,0,9010,1
38.09420536,1,1746,13.34735602,Europe/Rome,,,,ROCCELLA - CALLEA,0,1746,1
38.09265912,1,1747,13.34603772,Europe/Rome,,,,ROCCELLA - PONTE CORLEONE,0,1747,1
38.12512445,1,1740,13.31228971,Europe/Rome,,,,ROCCAZZO - DOGALI,0,1740,1
38.11821608,1,1741,13.30438592,Europe/Rome,,,,ROCCAZZO - ISTITUTO ZOOTECNICO,0,1741,1
38.11317404,1,1742,13.30642262,Europe/Rome,,,,ROCCAZZO - ISTITUTO ZOOTECNICO,0,1742,1
38.1046125,1,9011,13.3766921,Europe/Rome,,,,PONTE AMMIRAGLIO,0,9011,1
38.09681333,1,1164,13.42374167,Europe/Rome,,,,MESSINA MARINE - ZUCCHETTO,0,1164,1
38.0973,1,1165,13.41898167,Europe/Rome,,,,MESSINA MARINE 1,0,1165,1
38.098145,1,1166,13.41115333,Europe/Rome,,,,MESSINA MARINE 2,0,1166,1
38.098445,1,1167,13.40821167,Europe/Rome,,,,MESSINA MARINE 3,0,1167,1
38.10755,1,1160,13.38197,Europe/Rome,,,,MESSINA MARINE - SAETTA,0,1160,1
38.1021382,1,9012,13.380681,Europe/Rome,,,,SAN GIOVANNI DEI LEBBROSI,0,9012,1
38.09853333,1,1162,13.406595,Europe/Rome,,,,MESSINA MARINE - XXVII MAGGIO,0,1162,1
38.09672,1,1163,13.42300333,Europe/Rome,,,,MESSINA MARINE - ZUCCHETTO,0,1163,1
38.1032882,1,9013,13.3861538,Europe/Rome,,,,AMEDEO D'AOSTA,0,9013,1
38.10185833,1,1168,13.397585,Europe/Rome,,,,MESSINA MARINE 4,0,1168,1
38.09830333,1,1169,13.40865,Europe/Rome,,,,MESSINA MARINE 3,0,1169,1
38.0938444,1,472,13.38574782,Europe/Rome,,,,CONTE FEDERICO - CHIAZZESE,0,472,1
38.07904337,1,49,13.35451216,Europe/Rome,,,,ALOI - DI GREGORIO,0,49,1
38.08757589,1,46,13.35452083,Europe/Rome,,,,ALLODOLA 2,0,46,1
38.08788931,1,45,13.35459799,Europe/Rome,,,,ALLODOLA 1,0,45,1
38.14023432,1,41,13.35018878,Europe/Rome,,,,ALESSI - TOSELLI,0,41,1
38.110015,1,1569,13.31898667,Europe/Rome,,,,PITRE' 2,0,1569,1
38.09541033,1,1298,13.37465057,Europe/Rome,,,,ORETO - LO BIANCO,0,1298,1
38.1066168225,1,1299,13.3672541225,Europe/Rome,,,,ORETO - MENDOLA,0,1299,1
38.09836,1,1292,13.37277833,Europe/Rome,,,,ORETO - CONCORDIA,0,1292,1
38.1081279975,1,1293,13.3663120925,Europe/Rome,,,,ORETO - ERRANTE,0,1293,1
38.09975333,1,1290,13.37178333,Europe/Rome,,,,ORETO - BUONRIPOSO,0,1290,1
38.11052167,1,1563,13.32821832,Europe/Rome,,,,PITRE' - SCUOLA BONANNO,0,1563,1
38.10101667,1,1296,13.371005,Europe/Rome,,,,ORETO - LA COLLA,0,1296,1
38.09553099,1,1297,13.37445438,Europe/Rome,,,,ORETO - LO BIANCO,0,1297,1
38.1075253467,1,1294,13.3667721467,Europe/Rome,,,,ORETO - ERRANTE,0,1294,1
38.10066,1,1295,13.371165,Europe/Rome,,,,ORETO - LA COLLA,0,1295,1
38.11771903,1,797,13.28947663,Europe/Rome,,,,FALCONARA 3,0,797,1
38.11745314,1,796,13.291208,Europe/Rome,,,,FALCONARA 2,0,796,1
38.11769613,1,795,13.29576427,Europe/Rome,,,,FALCONARA 1,0,795,1
38.11779816,1,794,13.29581201,Europe/Rome,,,,FALCONARA 1,0,794,1
38.11900479,1,793,13.30001399,Europe/Rome,,,,FALCONARA - S. ISIDORO,0,793,1
38.11916373,1,792,13.30033517,Europe/Rome,,,,FALCONARA - S. ISIDORO,0,792,1
38.11998549,1,791,13.30509092,Europe/Rome,,,,FALCONARA - ROCCAZZO,0,791,1
38.11469699,1,790,13.29470849,Europe/Rome,,,,FALCONARA - PIAZZA BAIDA,0,790,1
38.154235,1,1366,13.37053667,Europe/Rome,,,,PAPA SERGIO - LAVITRANO,0,1366,1
38.14688667,1,1367,13.37038833,Europe/Rome,,,,PAPA SERGIO - OSPEDALE ALBANESE,0,1367,1
38.14972667,1,1364,13.37074667,Europe/Rome,,,,PAPA SERGIO - DI LEO,0,1364,1
38.15451607,1,1365,13.37056518,Europe/Rome,,,,PAPA SERGIO - LAVITRANO,0,1365,1
38.156315,1,1362,13.37069833,Europe/Rome,,,,PAPA SERGIO - CHIMICA ARENELLA,0,1362,1
38.15038833,1,1363,13.37075667,Europe/Rome,,,,PAPA SERGIO - DI LEO,0,1363,1
38.14780167,1,1360,13.37059667,Europe/Rome,,,,PAPA SERGIO - BOSCO,0,1360,1
38.157185,1,1361,13.370875,Europe/Rome,,,,PAPA SERGIO - CHIMICA ARENELLA,0,1361,1
38.14629667,1,1368,13.37008333,Europe/Rome,,,,PAPA SERGIO - OSPEDALE ALBANESE,0,1368,1
38.15174671,1,1369,13.37073952,Europe/Rome,,,,PAPA SERGIO - TONNARA,0,1369,1
